[{"id":"node_254506364","name":"Dakota Dunes Golf and Country Club","lat":51.8953675,"lon":-106.7142795},{"id":"node_272537555","name":"Sherington","lat":45.1545075,"lon":-73.5759063},{"id":"node_277188234","name":"Birtle Riverside Golf Club","lat":50.4209253,"lon":-101.061017},{"id":"node_279624998","name":"Russell Golf Club","lat":50.7719291,"lon":-101.2105152},{"id":"node_280108523","name":"Carlisle Golf and Country Club","lat":43.4143596,"lon":-79.9703206},{"id":"node_295803015","name":"Unnamed Course","lat":46.8937933,"lon":-71.1546025},{"id":"node_295803017","name":"Royal Québec","lat":46.902691,"lon":-71.1511558},{"id":"node_322102089","name":"Unnamed Course","lat":46.4191029,"lon":-63.3577193},{"id":"node_345477368","name":"Nanton Golf Club","lat":50.3533185,"lon":-113.7600761},{"id":"node_445988190","name":"Marine Drive Golf Club","lat":49.2173308,"lon":-123.1595063},{"id":"node_453888041","name":"Mont Tourbillon","lat":46.9643004,"lon":-71.2772209},{"id":"node_470086570","name":"River Oaks Golf Club","lat":44.9156285,"lon":-63.2317027},{"id":"node_823822463","name":"Riverside Golf Pro Shop","lat":53.5496869,"lon":-113.464456},{"id":"node_1181921147","name":"Golf de Lorraine","lat":45.6604028,"lon":-73.7803841},{"id":"node_1190383100","name":"Unnamed Course","lat":54.7932642,"lon":-127.1895639},{"id":"node_1190664151","name":"Unnamed Course","lat":54.7667778,"lon":-127.1272269},{"id":"node_1778233710","name":"Pitch and Putt","lat":49.026673,"lon":-57.593323},{"id":"node_1781093144","name":"Gander Golf Club","lat":48.9566139,"lon":-54.6309589},{"id":"node_1873516494","name":"Unnamed Course","lat":42.69896,"lon":-80.3254701},{"id":"node_1894127476","name":"Devil's Den","lat":43.9443248,"lon":-78.9955643},{"id":"node_2220116333","name":"Club de golf Pont-Rouge","lat":46.7632989,"lon":-71.6135897},{"id":"node_2467831575","name":"Glendenning Golf","lat":47.4865303,"lon":-52.831168},{"id":"node_2551133994","name":"Grand Meadows Golf Course","lat":47.2108691,"lon":-55.4047495},{"id":"node_2611082156","name":"Chedoke Golf Club - The Beddoe Course","lat":43.2492335,"lon":-79.9125336},{"id":"node_2611082157","name":"Chedoke Golf Club - The Martin Course","lat":43.248812,"lon":-79.9021929},{"id":"node_2615857639","name":"Darnley Greens","lat":46.550924,"lon":-63.6466559},{"id":"node_2674775543","name":"Mini Golf","lat":49.9326269,"lon":-97.0148861},{"id":"node_2771474227","name":"Unnamed Course","lat":51.0817398,"lon":-114.2214784},{"id":"node_2911709902","name":"Cactus Hills Golf Course","lat":51.9048177,"lon":-106.8201992},{"id":"node_3017293892","name":"Angus Glen - South Course","lat":43.8969194,"lon":-79.3253275},{"id":"node_3502970190","name":"Putting Horse Ranch","lat":53.5890008,"lon":-113.888235},{"id":"node_4203869935","name":"Mann Lakes Golf Course","lat":54.1722086,"lon":-111.484999},{"id":"node_4299229316","name":"Unnamed Course","lat":51.0837242,"lon":-99.5456362},{"id":"node_4366996328","name":"Club de Golf du Vieux Village","lat":45.3190297,"lon":-72.6633309},{"id":"node_4380083991","name":"Long Beach Golf Course","lat":49.0801442,"lon":-125.7839222},{"id":"node_4459640503","name":"Deer Ridge Golf Club","lat":43.4077449,"lon":-80.410262},{"id":"node_4507336375","name":"Golf Mont-Gabriel","lat":45.9195331,"lon":-74.1614355},{"id":"node_4618427212","name":"Club de Golf St-Jean-de-Matha","lat":46.2887265,"lon":-73.5609879},{"id":"node_5061947203","name":"Club de Golf Les Dunes","lat":45.9941617,"lon":-73.1474354},{"id":"node_5070252990","name":"Harmony Creek Golf Centre","lat":43.8891097,"lon":-78.8193516},{"id":"node_5359402121","name":"Bancroft Ridge Golf Course","lat":45.0731453,"lon":-77.8718792},{"id":"node_5570104031","name":"Verner Golf Club","lat":46.4155538,"lon":-80.1327496},{"id":"node_5763113875","name":"Bear Paw Par 3 Golf Course","lat":55.1371634,"lon":-118.7930593},{"id":"node_5771728235","name":"Golf des Iles","lat":45.6022624,"lon":-73.4653337},{"id":"node_6034632766","name":"Black Bull Golf Course","lat":52.958856,"lon":-114.0298071},{"id":"node_6491837725","name":"Lumby Golf Club","lat":50.2510561,"lon":-118.9539461},{"id":"node_6517114667","name":"Dauphin Lake Golf Club","lat":51.1472191,"lon":-99.8426264},{"id":"node_6537589426","name":"Redtail Landing","lat":53.3231329,"lon":-113.5589123},{"id":"node_6727801004","name":"WizGolf","lat":50.7197337,"lon":-113.9558795},{"id":"node_6734030953","name":"Golf Driving Range","lat":47.4999776,"lon":-64.9185618},{"id":"node_6789413890","name":"Seymour Golf & Country Club","lat":49.3148238,"lon":-122.9675002},{"id":"node_6871656499","name":"RotaryLinks Golf @ Wood Buffalo","lat":56.6593059,"lon":-111.2635619},{"id":"node_6935636416","name":"RedTail Landing Golf Club","lat":53.3230201,"lon":-113.5585967},{"id":"node_7064477756","name":"Silver Birch Golf Course","lat":54.4103678,"lon":-116.8190748},{"id":"node_7118346058","name":"Silverwing Links","lat":51.1000742,"lon":-113.9890801},{"id":"node_7165124059","name":"YXE","lat":52.158306,"lon":-106.6756673},{"id":"node_7196669524","name":"Seymour Creek Golf Centre","lat":49.3071372,"lon":-123.0249553},{"id":"node_7228197289","name":"The Golf Centre","lat":49.8668923,"lon":-119.452041},{"id":"node_7248471044","name":"Morningview Park Golf Course","lat":55.3350544,"lon":-118.69634},{"id":"node_7601263012","name":"Shelter Valley Creek Clubhouse","lat":43.9974983,"lon":-77.9993464},{"id":"node_7601278979","name":"Shelter Valley Creek Golf Course","lat":43.9962776,"lon":-78.0008314},{"id":"node_7630588583","name":"Dogleg Left","lat":43.7052747,"lon":-79.4061358},{"id":"node_7758943990","name":"Evergreen Golf Centre","lat":49.6694452,"lon":-112.7620403},{"id":"node_7869263041","name":"Golf Château Bromont","lat":45.3132682,"lon":-72.6413206},{"id":"node_8051229340","name":"Antigonish Golf & Country Club","lat":45.6316801,"lon":-61.9973786},{"id":"node_8168491999","name":"Club de Golf Le Sorcier","lat":45.5520314,"lon":-75.5965137},{"id":"node_8829242771","name":"Knollwood Golf Club - New Course","lat":43.1767235,"lon":-80.0177463},{"id":"node_8829242772","name":"Knollwood Golf Club - Old Course","lat":43.1719468,"lon":-80.0044318},{"id":"node_9156395747","name":"Longshotz Golf","lat":53.5411226,"lon":-113.5824575},{"id":"node_9190557731","name":"Гольф-Клуб","lat":51.0105419,"lon":-118.2307336},{"id":"node_9301726907","name":"The Track","lat":50.9597371,"lon":-113.6672256},{"id":"node_9340756180","name":"Club de golf Le Mémorial","lat":46.5445219,"lon":-72.7099909},{"id":"node_9438890692","name":"Driving Range","lat":49.3152495,"lon":-122.9654484},{"id":"node_9755615354","name":"Ulukhaktok Golf Course","lat":70.7525118,"lon":-117.7622534},{"id":"node_9912821238","name":"Braestone Club","lat":44.594159,"lon":-79.5541273},{"id":"node_10125335995","name":"Elbow Course","lat":51.0126622,"lon":-114.2439942},{"id":"node_10125335996","name":"Mountain Course","lat":51.012717,"lon":-114.246733},{"id":"node_10125335997","name":"Springs Course","lat":51.011565,"lon":-114.2465084},{"id":"node_11045698477","name":"Complexe récréatif VGolf","lat":46.8041856,"lon":-71.3311431},{"id":"node_11140110857","name":"Annie Lake Wilderness Golf Course","lat":60.4483646,"lon":-134.8813678},{"id":"node_11611368181","name":"Elkwater Park Golf Club","lat":49.6139764,"lon":-110.2796386},{"id":"node_11682202120","name":"Unnamed Course","lat":51.2079065,"lon":-102.5033954},{"id":"node_11738002080","name":"Glen Arbour","lat":44.7543775,"lon":-63.7699213},{"id":"node_11938239470","name":"CanGOLF","lat":51.0812224,"lon":-115.3427139},{"id":"node_11970819224","name":"Unnamed Course","lat":55.9477338,"lon":-129.9789182},{"id":"node_12015897508","name":"Seven Hills Golf & Country Club","lat":50.5870327,"lon":-127.3025767},{"id":"node_12168083651","name":"Orangeville Golf House","lat":43.9313364,"lon":-80.1031597},{"id":"node_12486807954","name":"Tracer Golf","lat":44.0352229,"lon":-79.4742849},{"id":"node_12660432641","name":"Cedar Link Golf Course","lat":44.3394245,"lon":-79.6615582},{"id":"node_12691990327","name":"Brampton Driving Range","lat":43.690941,"lon":-79.8051928},{"id":"node_12810727461","name":"Golf Live","lat":43.7731725,"lon":-79.6186176},{"id":"node_12821370631","name":"Tracer Golf","lat":43.6761461,"lon":-79.4887771},{"id":"node_13146212718","name":"Willows Golf Course","lat":53.2425424,"lon":-131.8107468},{"id":"node_13201887329","name":"Heron Landing Golf Course","lat":48.6539338,"lon":-93.3997958},{"id":"node_13252558780","name":"Club de Golf de Lachute","lat":45.6464682,"lon":-74.3280468},{"id":"node_13271113317","name":"1Putt","lat":53.641884,"lon":-113.4437844},{"id":"node_13339537053","name":"Golf House","lat":43.5415116,"lon":-80.3075068},{"id":"node_13357964851","name":"Golf Almighty","lat":43.6865808,"lon":-79.7584545},{"id":"node_13433264706","name":"Sportech Indoor Golf","lat":51.0444595,"lon":-114.0987871},{"id":"node_13448539546","name":"River Valley Golf Club","lat":54.7202494,"lon":-114.1779879},{"id":"node_13574884702","name":"Dorchester Ranch Golf Course","lat":52.9117606,"lon":-114.0246689},{"id":"node_13591296768","name":"Off The Mat Virtual Golf","lat":53.8028123,"lon":-113.644341},{"id":"node_13603622560","name":"Better Golf","lat":44.9685641,"lon":-64.9258066},{"id":"node_13753659585","name":"Pace or Play","lat":43.623879,"lon":-79.5667127},{"id":"node_13764329194","name":"Golf 247","lat":43.7059648,"lon":-79.3619482},{"id":"way_3979646","name":"Rosedale Golf Club","lat":43.7364508,"lon":-79.39212},{"id":"way_4391708","name":"Canyon Meadows Golf & Country Club","lat":50.9438576,"lon":-114.1004248},{"id":"way_4588524","name":"Cochrane Golf Club","lat":51.1762238,"lon":-114.4727289},{"id":"way_4922487","name":"Cataraqui Golf & Country Club","lat":44.2272644,"lon":-76.5342545},{"id":"way_5341485","name":"McCall Lake Golf Club","lat":51.0875975,"lon":-114.0211226},{"id":"way_5347052","name":"Silver Springs Golf & Country Club","lat":51.1054652,"lon":-114.1800414},{"id":"way_5347054","name":"Silver Springs Golf & Country Club","lat":51.1023266,"lon":-114.172251},{"id":"way_5560720","name":"Scarborough Golf & Country Club","lat":43.7528682,"lon":-79.2131299},{"id":"way_9382001","name":"Confederation Park Golf Course","lat":51.0779485,"lon":-114.100674},{"id":"way_10507892","name":"Chedoke Civic Golf Course","lat":43.2491524,"lon":-79.9082215},{"id":"way_10554354","name":"Earl Grey Golf Club","lat":50.9926293,"lon":-114.1101394},{"id":"way_10556163","name":"Lakeview Golf Course","lat":51.0003216,"lon":-114.1062559},{"id":"way_10556165","name":"Calgary Golf & Country Club","lat":51.0050166,"lon":-114.0897815},{"id":"way_10584928","name":"Winston (Calgary Elks) Golf Club","lat":51.0750004,"lon":-114.0400871},{"id":"way_10584942","name":"Fox Hollow Golf Club","lat":51.0745106,"lon":-114.0325881},{"id":"way_10584959","name":"Highland Golf & Country Club (Closed)","lat":51.092411,"lon":-114.0668203},{"id":"way_10619002","name":"Ottawa Hunt and Golf Club","lat":45.3417417,"lon":-75.6829057},{"id":"way_10918443","name":"The Landings Golf Course","lat":44.2227087,"lon":-76.5891717},{"id":"way_11322120","name":"Cochrane Golf Club","lat":51.1787318,"lon":-114.4721583},{"id":"way_11393236","name":"Club de golf Beaconsfield","lat":45.4347907,"lon":-73.8290866},{"id":"way_11393297","name":"Beaconsfield","lat":45.4437575,"lon":-73.8307491},{"id":"way_12702306","name":"Club de Golf de Joliette","lat":46.0506721,"lon":-73.4465684},{"id":"way_16476967","name":"Country Hills Golf Club","lat":51.1454812,"lon":-114.0885799},{"id":"way_18352939","name":"Henderson Lake Golf Course","lat":49.685678,"lon":-112.7952558},{"id":"way_18982679","name":"Silver Springs Golf & Country Club","lat":51.0974813,"lon":-114.172642},{"id":"way_19130513","name":"Garrison Golf Course","lat":44.2508672,"lon":-76.4495786},{"id":"way_19236453","name":"Club de Golf Montcalm Inc","lat":46.0277509,"lon":-73.6207668},{"id":"way_20152024","name":"Hamilton Golf & Country Club","lat":43.2165911,"lon":-79.9739002},{"id":"way_20215788","name":"Club de golf municipal de Montréal","lat":45.5695604,"lon":-73.5583673},{"id":"way_22797123","name":"Golf Dorval","lat":45.4724873,"lon":-73.7733472},{"id":"way_23102723","name":"Fraserview Golf Course","lat":49.212745,"lon":-123.0487048},{"id":"way_23121638","name":"Wildwood Golf Course","lat":52.1108782,"lon":-106.5796494},{"id":"way_23129616","name":"Willows Golf and Country Club","lat":52.0780974,"lon":-106.658351},{"id":"way_23129645","name":"Riverside Golf and Country Club","lat":52.0530165,"lon":-106.7140422},{"id":"way_23129685","name":"Moon Lake Golf and Country Club","lat":52.0168259,"lon":-106.7774086},{"id":"way_23167250","name":"Magna Golf Club","lat":44.0015934,"lon":-79.4233481},{"id":"way_23250044","name":"Victoria Golf Course","lat":53.5364563,"lon":-113.5256438},{"id":"way_23250862","name":"Derrick Golf and Winter Club","lat":53.4677053,"lon":-113.5457326},{"id":"way_23250870","name":"Riverside Golf Course","lat":53.5520523,"lon":-113.4582743},{"id":"way_23271616","name":"Beacon Hall Golf Club","lat":43.9767521,"lon":-79.4492221},{"id":"way_23315292","name":"Canmore Golf Club","lat":51.1061364,"lon":-115.371707},{"id":"way_23346730","name":"Holiday Park Golf Course","lat":52.1050327,"lon":-106.6963986},{"id":"way_23378003","name":"Club de Golf Rosemère Fontainebleau","lat":45.6610332,"lon":-73.820077},{"id":"way_23425470","name":"Ambassador Golf Club","lat":42.2519714,"lon":-83.0832139},{"id":"way_23442650","name":"Mill Woods Golf Course","lat":53.4816445,"lon":-113.4330998},{"id":"way_23454310","name":"Golf Dome","lat":52.1381826,"lon":-106.6677433},{"id":"way_23482615","name":"Silverwood Golf Course","lat":52.1909072,"lon":-106.6245932},{"id":"way_23501862","name":"Belevedere Golf & Country Club","lat":53.4285446,"lon":-113.2525276},{"id":"way_23518657","name":"Red Tail Landing","lat":53.3216442,"lon":-113.554857},{"id":"way_23859808","name":"Dominion Golf & Country Club","lat":42.2086371,"lon":-83.0039558},{"id":"way_23859833","name":"Fox Glen Golf Club","lat":42.1448007,"lon":-82.9987843},{"id":"way_23860101","name":"Seven Lakes Golf Course","lat":42.216813,"lon":-83.023132},{"id":"way_23891675","name":"Dundas Valley Golf Club","lat":43.2667247,"lon":-79.9806271},{"id":"way_24158446","name":"Don Valley Golf Course","lat":43.7475215,"lon":-79.4166848},{"id":"way_24306565","name":"The Fairmont Banff Springs Golf Course","lat":51.1709053,"lon":-115.540214},{"id":"way_24384785","name":"Mount Bruno Country Club","lat":45.530007,"lon":-73.3147703},{"id":"way_24399315","name":"Dentonia Golf Course","lat":43.697693,"lon":-79.2889175},{"id":"way_24487957","name":"Beach Grove Golf and Country Club","lat":49.0283218,"lon":-123.0639884},{"id":"way_24606582","name":"Donalda Golf and Country Club","lat":43.7502394,"lon":-79.3399294},{"id":"way_24618583","name":"Sylvan Lake Golf & Country Club","lat":52.3082582,"lon":-114.1128978},{"id":"way_24633719","name":"Sunshine Woods Golf Club","lat":49.1183159,"lon":-122.9306149},{"id":"way_24634074","name":"Kings Links Golf Course by the Sea","lat":49.0639604,"lon":-123.0185491},{"id":"way_24657388","name":"Prince George Golf & Curling Club","lat":53.89301,"lon":-122.7752741},{"id":"way_24689936","name":"Nicklaus North Golf Course","lat":50.1396291,"lon":-122.9521037},{"id":"way_24690880","name":"Fairmont Chateau Whistler Golf Club","lat":50.1301794,"lon":-122.935367},{"id":"way_24722746","name":"Delta Golf Club","lat":49.0978528,"lon":-122.893996},{"id":"way_24761152","name":"Rattle Snake Point Golf & County Club","lat":43.4773326,"lon":-79.8124202},{"id":"way_24800683","name":"Wyldewood Golf & Country Club","lat":43.5371382,"lon":-79.7930992},{"id":"way_24800697","name":"Royal Ontario Golf Club","lat":43.5412218,"lon":-79.7965464},{"id":"way_24885329","name":"Tam O'Shanter Golf Course","lat":43.7891508,"lon":-79.295975},{"id":"way_24941563","name":"Richmond Country Club","lat":49.128897,"lon":-123.1248911},{"id":"way_24979710","name":"Millcroft Golf and Country Club","lat":43.3881593,"lon":-79.8059508},{"id":"way_24979716","name":"Millcroft Golf and Country Club","lat":43.3904542,"lon":-79.7973664},{"id":"way_24979717","name":"Millcroft Golf and Country Club","lat":43.3935532,"lon":-79.8067639},{"id":"way_24982058","name":"Millcroft Golf and Country Club","lat":43.3995844,"lon":-79.804328},{"id":"way_24982059","name":"Millcroft Golf and Country Club","lat":43.4015225,"lon":-79.8103134},{"id":"way_24982061","name":"Millcroft Golf and Country Club","lat":43.3976756,"lon":-79.8145086},{"id":"way_24995147","name":"Little River Municipal Golf Course","lat":42.3047074,"lon":-82.9274833},{"id":"way_25083914","name":"Belmont Golf Course","lat":49.1558153,"lon":-122.5939141},{"id":"way_25084541","name":"Fort Langley Golf Course","lat":49.1790815,"lon":-122.592623},{"id":"way_25120493","name":"Club de Golf Arundel","lat":45.9800642,"lon":-74.6230044},{"id":"way_25124023","name":"Tuxedo Golf Club","lat":49.8627445,"lon":-97.2345068},{"id":"way_25147198","name":"Mylora Executive Golf Course","lat":49.1425284,"lon":-123.0835879},{"id":"way_25311768","name":"Royalwood Golf Club","lat":49.1197147,"lon":-122.0894531},{"id":"way_25311838","name":"Chilliwack Golf and Country Club","lat":49.125724,"lon":-122.0664936},{"id":"way_25311857","name":"Cheam Mountain Golf Course","lat":49.1411907,"lon":-121.993696},{"id":"way_25311880","name":"Kinkora Golf Course","lat":49.120801,"lon":-121.9474871},{"id":"way_25311932","name":"Cultus Lake Golf Club","lat":49.0726755,"lon":-121.9666438},{"id":"way_25312097","name":"Meadowlands Golf and Country Club","lat":49.1868813,"lon":-121.8998946},{"id":"way_25482135","name":"Tyandaga Municipal Golf Course","lat":43.3496122,"lon":-79.845652},{"id":"way_25490649","name":"Highlands Golf Course","lat":53.5603559,"lon":-113.4344995},{"id":"way_25519733","name":"Fraserglen Golf Course","lat":49.0331512,"lon":-122.2301599},{"id":"way_25679849","name":"Windermere Golf and Country Club","lat":53.4282869,"lon":-113.6484032},{"id":"way_25679883","name":"River Ridge Golf and Country Club","lat":53.4415737,"lon":-113.6364145},{"id":"way_25730654","name":"Juan de Fuca Golf Course","lat":48.4473317,"lon":-123.4597405},{"id":"way_26100969","name":"Harrison Resort Golf Course","lat":49.2763846,"lon":-121.7879451},{"id":"way_26108026","name":"Uplands Golf Club","lat":48.4506918,"lon":-123.3094229},{"id":"way_26194853","name":"Ledgeview Golf and Country Club","lat":49.0738184,"lon":-122.2305706},{"id":"way_26312538","name":"Maple Ridge Golf Course","lat":50.9573794,"lon":-114.034781},{"id":"way_26341372","name":"Edmonton Garrison Memorial Golf & Curling Club","lat":53.6639306,"lon":-113.4851112},{"id":"way_26596220","name":"Langara Golf Course","lat":49.2209094,"lon":-123.1112725},{"id":"way_26634855","name":"Peace Arch Golf Course","lat":49.0105525,"lon":-122.7538849},{"id":"way_26634892","name":"Hazelmere Golf Course","lat":49.0122884,"lon":-122.7188807},{"id":"way_26634957","name":"Meridian Golf Course","lat":49.021478,"lon":-122.7558865},{"id":"way_26639269","name":"Nicowynd Golf Course","lat":49.0705564,"lon":-122.8325619},{"id":"way_26762646","name":"Surrey Golf Club","lat":49.1405733,"lon":-122.7474037},{"id":"way_26783761","name":"Club de Golf Capri","lat":45.7263289,"lon":-74.1424584},{"id":"way_26979954","name":"Hunters Pointe Golf Course","lat":43.0145835,"lon":-79.2197039},{"id":"way_27047491","name":"Harvest Hills Driving Range and Mini Golf","lat":51.1524257,"lon":-114.0384429},{"id":"way_27053840","name":"Golf Beauport","lat":46.8695213,"lon":-71.2150084},{"id":"way_27165341","name":"Humber Valley Golf Course","lat":43.7273858,"lon":-79.5444335},{"id":"way_27501859","name":"Olympic View Golf Club","lat":48.3995116,"lon":-123.5220757},{"id":"way_27695066","name":"Golf 9Chatel","lat":46.8626393,"lon":-71.3242053},{"id":"way_28119263","name":"Leduc Golf & Country Club","lat":53.254148,"lon":-113.5680224},{"id":"way_28256353","name":"Centennial Park Golf Centre","lat":43.6500841,"lon":-79.5983982},{"id":"way_28433240","name":"Country Club de Montréal","lat":45.4845693,"lon":-73.4975672},{"id":"way_29011621","name":"York Downs Golf and Country Club","lat":43.8826353,"lon":-79.3270894},{"id":"way_29031398","name":"Richmond Hill Golf and Country Club","lat":43.8340297,"lon":-79.4491406},{"id":"way_29050621","name":"Parkview Golf Course","lat":43.8479953,"lon":-79.2395711},{"id":"way_29234665","name":"Ladies Golf Club of Toronto","lat":43.820825,"lon":-79.4138631},{"id":"way_29439076","name":"Kingston Expert Tees","lat":44.2613589,"lon":-76.6106614},{"id":"way_30425959","name":"Laval-Sur-Le-Lac","lat":45.531011,"lon":-73.8708209},{"id":"way_30670367","name":"River Oaks Golf Course","lat":49.7104964,"lon":-97.201116},{"id":"way_30792430","name":"Club de Golf Metropolitain","lat":46.8244993,"lon":-71.3755185},{"id":"way_30876370","name":"Kildonan Park Golf Course","lat":49.9476707,"lon":-97.1051699},{"id":"way_31151226","name":"Vancouver Golf Club","lat":49.2527177,"lon":-122.8781223},{"id":"way_31399643","name":"Point Grey Golf & Country Club","lat":49.2243526,"lon":-123.1850305},{"id":"way_31451967","name":"Islington Golf Club","lat":43.6535669,"lon":-79.533885},{"id":"way_31812130","name":"Lambton Golf & Country Club","lat":43.6691916,"lon":-79.506969},{"id":"way_31812131","name":"Scarlett Woods Golf Club (City of Toronto)","lat":43.6817521,"lon":-79.5042443},{"id":"way_32119876","name":"St George's Golf & Country Club","lat":43.6747243,"lon":-79.5305588},{"id":"way_32171484","name":"Weston Golf and Country Club","lat":43.7040764,"lon":-79.5402582},{"id":"way_32224378","name":"Oakdale Golf & Country Club","lat":43.7337639,"lon":-79.5183465},{"id":"way_32243015","name":"Lakeview Golf Course","lat":43.5886151,"lon":-79.5606593},{"id":"way_32266179","name":"Andy Bathgate Golf Driving Range","lat":43.61859,"lon":-79.6361267},{"id":"way_32815959","name":"Riverway Golf Course","lat":49.2021629,"lon":-122.9966293},{"id":"way_32837716","name":"Glen Abbey","lat":43.4527274,"lon":-79.7169114},{"id":"way_32919048","name":"Flemingdon Park Golf Club","lat":43.7196937,"lon":-79.3243786},{"id":"way_33140404","name":"Peel Village Golf Club","lat":43.667995,"lon":-79.7251897},{"id":"way_33194790","name":"Lionhead Golf Club","lat":43.6449235,"lon":-79.7857317},{"id":"way_33653605","name":"Thornhill Country Club","lat":43.8199599,"lon":-79.4348883},{"id":"way_33788178","name":"Hornby Glen Golf Course","lat":43.5706524,"lon":-79.8535734},{"id":"way_33806143","name":"Royal Woodbine Golf Club","lat":43.682214,"lon":-79.586884},{"id":"way_33806144","name":"Royal Woodbine Golf Club","lat":43.6918351,"lon":-79.5931798},{"id":"way_34246110","name":"Deerfield Golf Club","lat":43.4184499,"lon":-79.7390484},{"id":"way_34246463","name":"Oakville Golf Club","lat":43.4561343,"lon":-79.7014953},{"id":"way_34263044","name":"Harmony Creek Golf Centre Ltd","lat":43.8904419,"lon":-78.8224733},{"id":"way_34361986","name":"Club de golf Lorette","lat":46.8597634,"lon":-71.3799441},{"id":"way_34362649","name":"Oshawa Golf & Curling Club","lat":43.908397,"lon":-78.8770653},{"id":"way_34585413","name":"Bathurst Glen Golf Course","lat":43.9278942,"lon":-79.471552},{"id":"way_35140396","name":"Fredericton Golf Club","lat":45.9591068,"lon":-66.6834044},{"id":"way_35357085","name":"Parkshore Golf Club","lat":43.7330112,"lon":-79.6487729},{"id":"way_35451378","name":"Dufferin Heights Country Club","lat":45.0697467,"lon":-72.0638672},{"id":"way_35451595","name":"Ancien club de golf le Boisé","lat":45.7169801,"lon":-73.6328017},{"id":"way_35491586","name":"Club de golf Terrebonne","lat":45.7441676,"lon":-73.7319633},{"id":"way_35491977","name":"Club de golf le Mirage","lat":45.7453187,"lon":-73.7214095},{"id":"way_35492924","name":"Ancien Club de golf Mascouche (FERMÉ)","lat":45.7424989,"lon":-73.6401625},{"id":"way_35894312","name":"Quilchena Golf & Country Club","lat":49.1606797,"lon":-123.1915535},{"id":"way_35894316","name":"West Richmond Pitch & Putt Golf Course","lat":49.14669,"lon":-123.1756257},{"id":"way_36767252","name":"Rupert Park Pitch & Putt","lat":49.2716433,"lon":-123.0312989},{"id":"way_37058592","name":"McCleery Golf Course","lat":49.2198729,"lon":-123.1684402},{"id":"way_37058593","name":"Marine Drive Golf Club","lat":49.2170086,"lon":-123.1597112},{"id":"way_37265435","name":"Indian Lake Golf Course","lat":44.5922666,"lon":-63.706154},{"id":"way_37265438","name":"Prospect Short Game Golf","lat":44.5775539,"lon":-63.7062191},{"id":"way_37393626","name":"Queen Elizabeth Pitch & Putt","lat":49.2389096,"lon":-123.1093004},{"id":"way_37583359","name":"Golf Royal Charbourg","lat":46.9268867,"lon":-71.3645575},{"id":"way_37583360","name":"Club de Golf Stoneham","lat":46.9920069,"lon":-71.3764186},{"id":"way_37704932","name":"Country Side Golf Course","lat":53.4357557,"lon":-113.3015946},{"id":"way_37779557","name":"Perth Golf Course","lat":44.8981498,"lon":-76.2667868},{"id":"way_37849760","name":"Kokanee Springs Golf Resort","lat":49.6832641,"lon":-116.8111557},{"id":"way_38400967","name":"Unnamed Course","lat":46.9658965,"lon":-71.2799045},{"id":"way_38400968","name":"Unnamed Course","lat":46.9669666,"lon":-71.2729808},{"id":"way_39285216","name":"Club de Golf Champlain","lat":45.4156932,"lon":-75.7808852},{"id":"way_39872926","name":"Blue Springs Golf Club","lat":43.6200354,"lon":-80.0586163},{"id":"way_39872927","name":"Unnamed Course","lat":43.6461735,"lon":-80.0797384},{"id":"way_39872928","name":"Unnamed Course","lat":43.5312448,"lon":-80.1885686},{"id":"way_39872929","name":"Unnamed Course","lat":43.5699738,"lon":-80.2656618},{"id":"way_39872932","name":"Conestoga Golf Course","lat":43.5464743,"lon":-80.4963958},{"id":"way_39872935","name":"Unnamed Course","lat":43.6685218,"lon":-80.3230804},{"id":"way_39872938","name":"Cutten Fields Course","lat":43.5418775,"lon":-80.229613},{"id":"way_39872940","name":"Unnamed Course","lat":43.5154061,"lon":-80.3914169},{"id":"way_39945902","name":"Unnamed Course","lat":45.6583557,"lon":-73.7798299},{"id":"way_39971102","name":"Westmount Golf & Country Club","lat":43.4497118,"lon":-80.5362056},{"id":"way_39971103","name":"Foxwood Golf and Country Club","lat":43.4199429,"lon":-80.6883538},{"id":"way_39971104","name":"Stratford Municipal Golf Course","lat":43.3569898,"lon":-80.9662951},{"id":"way_39971105","name":"Dundee Country Club","lat":43.3747137,"lon":-80.5584492},{"id":"way_39971106","name":"Stratford Country Club","lat":43.3779208,"lon":-80.9555962},{"id":"way_39971107","name":"Unnamed Course","lat":43.3093854,"lon":-80.8298549},{"id":"way_39983002","name":"St. Marys Golf & Country Club","lat":43.2669406,"lon":-81.1189445},{"id":"way_39983005","name":"Science Hill Country Club","lat":43.2951525,"lon":-81.1759999},{"id":"way_39983009","name":"Mitchell Golf Club","lat":43.4817466,"lon":-81.1995595},{"id":"way_39983013","name":"Exeter Golf Club","lat":43.329203,"lon":-81.458303},{"id":"way_40007769","name":"Unnamed Course","lat":43.3183119,"lon":-81.7467846},{"id":"way_40007770","name":"White Squirrel Golf Club","lat":43.4026721,"lon":-81.7016941},{"id":"way_40038468","name":"Arkona Fairways","lat":43.0765131,"lon":-81.8252729},{"id":"way_40038469","name":"Indian Hills Golf Club","lat":43.1674513,"lon":-81.9952635},{"id":"way_40069804","name":"Le Ricochet","lat":48.4160404,"lon":-71.0183739},{"id":"way_40253995","name":"Maple Ridge Golf Club","lat":43.0225028,"lon":-81.1237014},{"id":"way_40253996","name":"Golf Land Golf Centre","lat":43.0239045,"lon":-81.1496623},{"id":"way_40253998","name":"West Haven Golf & Country Club","lat":43.0025157,"lon":-81.3813628},{"id":"way_40254000","name":"Fanshawe Golf & Country Club","lat":43.0590325,"lon":-81.1948763},{"id":"way_40254002","name":"Llyndinshire Golf & Country Club","lat":43.0586725,"lon":-81.2552925},{"id":"way_40395741","name":"Kensington Pitch and Putt","lat":49.2771939,"lon":-122.9783005},{"id":"way_40403853","name":"Unnamed Course","lat":43.1142919,"lon":-80.7434049},{"id":"way_40403857","name":"Ingersoll Golf and Country Club","lat":43.0208545,"lon":-80.8690396},{"id":"way_40604798","name":"Brant Valley Golf Course","lat":43.2086569,"lon":-80.2242253},{"id":"way_40604805","name":"Arrowdale Public Golf Course","lat":43.1515203,"lon":-80.2449613},{"id":"way_40604806","name":"Brantford Golf and Country Club","lat":43.1621844,"lon":-80.3011015},{"id":"way_40604807","name":"Knollwood Golf Club","lat":43.1730319,"lon":-80.0120181},{"id":"way_40736396","name":"Listowel Golf Club","lat":43.748225,"lon":-80.9495033},{"id":"way_40736398","name":"Elmira Golf Club","lat":43.6085451,"lon":-80.5769213},{"id":"way_40788798","name":"Seaforth Golf and Country Club","lat":43.5375093,"lon":-81.3942772},{"id":"way_40838631","name":"Unnamed Course","lat":43.5889999,"lon":-81.6987227},{"id":"way_40869160","name":"Club de golf La Madeleine","lat":45.6069117,"lon":-73.1274358},{"id":"way_40887882","name":"Unnamed Course","lat":43.7932895,"lon":-81.7060486},{"id":"way_40970201","name":"Unnamed Course","lat":43.8637799,"lon":-81.3154434},{"id":"way_41374965","name":"Granite Pointe Golf Club and RV Park","lat":49.4793217,"lon":-117.3086986},{"id":"way_41374966","name":"Granite Pointe Golf Club and RV Park","lat":49.4758782,"lon":-117.3001864},{"id":"way_41647157","name":"Club de Golf Boucherville","lat":45.5816166,"lon":-73.4382782},{"id":"way_41779106","name":"Swaneset Bay Resort & Country Club","lat":49.3062096,"lon":-122.6592151},{"id":"way_41780199","name":"Pitt Meadows Golf Club","lat":49.251965,"lon":-122.6964908},{"id":"way_41835587","name":"Eaglequest Golf","lat":49.2315968,"lon":-122.8705164},{"id":"way_41889792","name":"Pineview Golf Course","lat":45.4302939,"lon":-75.5955311},{"id":"way_41920919","name":"Club de Golf Lévis","lat":46.8000403,"lon":-71.1644701},{"id":"way_42420046","name":"Unnamed Course","lat":44.3183263,"lon":-76.1872817},{"id":"way_42420048","name":"Unnamed Course","lat":44.2760688,"lon":-76.3695896},{"id":"way_42420049","name":"Unnamed Course","lat":44.3404551,"lon":-76.312889},{"id":"way_42420053","name":"Inverary Golf and Country Club","lat":44.3814632,"lon":-76.4876441},{"id":"way_42434882","name":"Central Park Pitch & Putt","lat":49.2234509,"lon":-123.0156959},{"id":"way_43693892","name":"Club de Golf Les Dunes","lat":45.9956273,"lon":-73.1532799},{"id":"way_43843732","name":"Club de golf Verchères","lat":45.7153626,"lon":-73.3160813},{"id":"way_43934762","name":"Bushwood Golf Club","lat":43.9451002,"lon":-79.2179556},{"id":"way_43934764","name":"Cherry Downs Golf & Country Club","lat":43.9488286,"lon":-79.0899573},{"id":"way_43934776","name":"Markham Executive Golf Course","lat":43.8522826,"lon":-79.2874659},{"id":"way_43934777","name":"Unnamed Course","lat":43.9378847,"lon":-79.3480191},{"id":"way_43934779","name":"Unnamed Course","lat":43.9239367,"lon":-79.4375201},{"id":"way_43934781","name":"Upper Unionville Golf Club","lat":43.9296485,"lon":-79.3193127},{"id":"way_43934785","name":"Glen Cedars Golf Club","lat":43.9254021,"lon":-79.1892444},{"id":"way_43934786","name":"Whitevale Golf Club","lat":43.8780101,"lon":-79.1463851},{"id":"way_43934789","name":"Unnamed Course","lat":43.8660394,"lon":-79.0698669},{"id":"way_43934791","name":"Deer Creek Golf Course","lat":43.9090279,"lon":-79.024692},{"id":"way_43934793","name":"Bethesda Grange Golf Course","lat":43.9622911,"lon":-79.3620396},{"id":"way_43934794","name":"Lakeridge Links & Whispering Ridge Golf Courses","lat":43.9724838,"lon":-79.0174956},{"id":"way_43934795","name":"Westview Golf Club","lat":43.9912565,"lon":-79.4055272},{"id":"way_43934796","name":"Unnamed Course","lat":43.9601679,"lon":-79.1171089},{"id":"way_43934798","name":"Station Creek Golf Club","lat":43.9552472,"lon":-79.3680073},{"id":"way_43934799","name":"Unnamed Course","lat":44.0028326,"lon":-79.3209609},{"id":"way_43934800","name":"Emerald Hills Golf Course","lat":43.9955006,"lon":-79.3573183},{"id":"way_43934801","name":"Bloomington Downs Golf Course","lat":43.9648373,"lon":-79.4252808},{"id":"way_43934802","name":"Spring Lakes Golf Club","lat":43.9672077,"lon":-79.2928818},{"id":"way_43936246","name":"Caledon Woods Golf Course","lat":43.916468,"lon":-79.7971393},{"id":"way_43936248","name":"Caledon Golf and Country Club","lat":43.7842071,"lon":-79.9280832},{"id":"way_43936253","name":"Board of Trade Golf Course","lat":43.7987289,"lon":-79.5971203},{"id":"way_43936254","name":"Mayfield Golf Club","lat":43.7896391,"lon":-79.7895592},{"id":"way_43936255","name":"Unnamed Course","lat":43.7969385,"lon":-79.6029963},{"id":"way_43936259","name":"Unnamed Course","lat":43.8087001,"lon":-79.574121},{"id":"way_43936261","name":"Unnamed Course","lat":43.79191,"lon":-79.5967216},{"id":"way_43936264","name":"Nobleton Lakes Country Club","lat":43.9338496,"lon":-79.6502196},{"id":"way_43937372","name":"Wedgewood Golf Centre","lat":43.2999299,"lon":-79.8981625},{"id":"way_43937465","name":"Cedar Springs Golf Course","lat":43.4179325,"lon":-79.9243118},{"id":"way_43937471","name":"Burlington Springs Golf & Country Club","lat":43.3961634,"lon":-79.8969191},{"id":"way_43937472","name":"Hidden Lake Golf Club","lat":43.3757577,"lon":-79.8834428},{"id":"way_43937473","name":"Burlington Golf and Country Club","lat":43.3122344,"lon":-79.8301659},{"id":"way_43937477","name":"Camisle Golf Course","lat":43.3904017,"lon":-79.8837817},{"id":"way_43937479","name":"Lowville Golf Club","lat":43.4223748,"lon":-79.9004377},{"id":"way_43937480","name":"Unnamed Course","lat":43.4298507,"lon":-79.8702569},{"id":"way_44008427","name":"Club de Golf de la Vallée du Richelieu","lat":45.596663,"lon":-73.2836953},{"id":"way_44008429","name":"Club de Golf Les Arpents Verts","lat":45.6044282,"lon":-73.2733151},{"id":"way_44122248","name":"Uplands Golf & Ski Center","lat":43.8248869,"lon":-79.4390776},{"id":"way_44664423","name":"Club de Golf Islesmere","lat":45.5289808,"lon":-73.8492343},{"id":"way_45395366","name":"The Kanawaki Golf Club","lat":45.4007836,"lon":-73.6638703},{"id":"way_46866710","name":"Club de Golf de Saint-Lambert","lat":45.5043516,"lon":-73.5017876},{"id":"way_46893001","name":"Silver Springs Golf Course Clubhouse","lat":51.0981599,"lon":-114.1717224},{"id":"way_47937924","name":"Valley Ridge Golf Club","lat":51.0969781,"lon":-114.2553483},{"id":"way_48332168","name":"Caughnawaga Golf Club","lat":45.3860174,"lon":-73.6685994},{"id":"way_48979004","name":"Country Hills Golf Club","lat":51.1512339,"lon":-114.0741504},{"id":"way_48979682","name":"Country Hills Golf Club","lat":51.1513598,"lon":-114.0807245},{"id":"way_49159971","name":"Golf de l'Île de Montréal - Parcours de l'Irlande","lat":45.6916434,"lon":-73.5079307},{"id":"way_49160164","name":"Golf de l'Île de Montréal","lat":45.6830306,"lon":-73.5228978},{"id":"way_49547890","name":"Stanley Park Pitch & Putt","lat":49.2940242,"lon":-123.1455909},{"id":"way_49946868","name":"Silverwing Golf Course","lat":51.1039327,"lon":-113.9917261},{"id":"way_52135119","name":"Turnberry Golf Club","lat":43.7238266,"lon":-79.7746533},{"id":"way_52303650","name":"Golf le Cardinal","lat":45.53641,"lon":-73.8489689},{"id":"way_52304122","name":"UFO","lat":45.5493856,"lon":-73.847658},{"id":"way_52465210","name":"Inglewood Golf & Curling Club","lat":51.0269111,"lon":-114.0052825},{"id":"way_53143742","name":"Riverfront Golf Course","lat":44.1653996,"lon":-76.3602245},{"id":"way_53331988","name":"Golf St-François","lat":45.6682306,"lon":-73.7075882},{"id":"way_54171912","name":"Club De Golf Waterville","lat":45.2727681,"lon":-71.8863171},{"id":"way_54175955","name":"Club de golf de North-Hathley","lat":45.2648337,"lon":-71.9757419},{"id":"way_54581518","name":"Club de golf de Grand-Sault","lat":47.0537696,"lon":-67.7789346},{"id":"way_54585434","name":"Napanee Golf & Country Club","lat":44.2424704,"lon":-76.9391894},{"id":"way_54585435","name":"Amherstview Golf Club","lat":44.2327394,"lon":-76.6531952},{"id":"way_54621432","name":"Unnamed Course","lat":44.287986,"lon":-76.8041529},{"id":"way_55019164","name":"Club De Golf Pen-Y-Bryn","lat":45.476197,"lon":-71.5129643},{"id":"way_55752126","name":"Diamondback Golf Club","lat":43.9611583,"lon":-79.4147227},{"id":"way_55974948","name":"The Briars Golf Club","lat":44.3192715,"lon":-79.3580201},{"id":"way_55974950","name":"Lyndhurst Golf Course","lat":44.2566973,"lon":-79.3451357},{"id":"way_55974951","name":"Pines of Georgina Golf Course","lat":44.3344142,"lon":-79.2094858},{"id":"way_55974953","name":"Unnamed Course","lat":44.3154472,"lon":-79.3749108},{"id":"way_55974954","name":"Briars Golf Club","lat":44.3155546,"lon":-79.3511896},{"id":"way_55974955","name":"Cedarhurst Golf Club","lat":44.4023501,"lon":-79.1539247},{"id":"way_55974956","name":"Orchard Beach Golf Club","lat":44.2590335,"lon":-79.4797307},{"id":"way_55974957","name":"Unnamed Course","lat":44.2947458,"lon":-79.4779808},{"id":"way_56000350","name":"Pheasant Run Golf Club","lat":44.0919044,"lon":-79.3739827},{"id":"way_56000351","name":"Shawneeki Golf Club","lat":44.0966809,"lon":-79.4054572},{"id":"way_56000352","name":"Mill Run Golf Course - Executive Course","lat":44.0785452,"lon":-79.216324},{"id":"way_56000353","name":"Foxbridge Golf Club - North Course","lat":44.1083312,"lon":-79.1012922},{"id":"way_56000354","name":"Wooden Sticks Golf Club","lat":44.1015567,"lon":-79.0981443},{"id":"way_56000358","name":"Unnamed Course","lat":44.1984636,"lon":-79.260872},{"id":"way_56155309","name":"Fair Havens Ministries","lat":44.5108988,"lon":-79.098328},{"id":"way_56155352","name":"Unnamed Course","lat":44.537371,"lon":-79.0732092},{"id":"way_56156414","name":"Unnamed Course","lat":44.7285762,"lon":-79.3876846},{"id":"way_56156446","name":"Unnamed Course","lat":44.7280023,"lon":-79.3729359},{"id":"way_56156739","name":"Couchiching Golf & Country Club","lat":44.6221727,"lon":-79.4253692},{"id":"way_56156762","name":"Unnamed Course","lat":44.4984634,"lon":-79.4858219},{"id":"way_56209368","name":"Unnamed Course","lat":44.5963583,"lon":-79.5573021},{"id":"way_56209648","name":"Bonaire Golf Club","lat":44.690662,"lon":-79.6414214},{"id":"way_56209828","name":"Unnamed Course","lat":44.7270671,"lon":-79.9644689},{"id":"way_56210375","name":"Unnamed Course","lat":44.6191786,"lon":-79.7921348},{"id":"way_56211091","name":"Brooklea Golf & Country Club","lat":44.712609,"lon":-79.8921008},{"id":"way_56211161","name":"Marlwood Golf & Country Club","lat":44.5135314,"lon":-79.9907271},{"id":"way_56211717","name":"Midland Golf & Country Club","lat":44.7445482,"lon":-79.9288021},{"id":"way_56217508","name":"Pelham Hills Golf Club","lat":42.9839029,"lon":-79.3008346},{"id":"way_56218167","name":"Unnamed Course","lat":42.9078964,"lon":-79.1770644},{"id":"way_56218617","name":"Whiskey Run Golf Course","lat":42.8779072,"lon":-79.2119381},{"id":"way_56218725","name":"Unnamed Course","lat":42.8980055,"lon":-79.0699053},{"id":"way_56219143","name":"Port Colborne Country Club","lat":42.8817618,"lon":-79.3408577},{"id":"way_56219384","name":"Unnamed Course","lat":42.8796571,"lon":-79.4308644},{"id":"way_56221073","name":"Niagara National Golf & Country","lat":42.9542082,"lon":-79.0247539},{"id":"way_56221395","name":"Unnamed Course","lat":42.9907544,"lon":-79.3864683},{"id":"way_56229830","name":"Freedom Oaks Golf Club","lat":42.845684,"lon":-79.6266384},{"id":"way_56231186","name":"Coral Creek Golf Course (Closed)","lat":42.8803043,"lon":-79.8720999},{"id":"way_56679396","name":"Eganridge Resort, Country Club & Spa","lat":44.5296496,"lon":-78.6125909},{"id":"way_56680186","name":"Byrnell Golf Course","lat":44.5296872,"lon":-78.756405},{"id":"way_56703298","name":"Unnamed Course","lat":45.1024043,"lon":-79.2733066},{"id":"way_56703548","name":"Unnamed Course","lat":45.0453127,"lon":-79.3456128},{"id":"way_56704110","name":"The Fairways at Kirrie Glen","lat":45.0571714,"lon":-79.4257241},{"id":"way_56705016","name":"Unnamed Course","lat":45.0723448,"lon":-79.4881561},{"id":"way_56705253","name":"Unnamed Course","lat":45.2135527,"lon":-79.4566502},{"id":"way_56706120","name":"Bigwin Island Golf Club","lat":45.2416245,"lon":-79.0273376},{"id":"way_56706228","name":"Unnamed Course","lat":45.2081477,"lon":-79.2887894},{"id":"way_56999762","name":"Unnamed Course","lat":44.9542036,"lon":-79.3687254},{"id":"way_57001675","name":"Unnamed Course","lat":44.958171,"lon":-79.3185918},{"id":"way_57005160","name":"Unnamed Course","lat":44.8228256,"lon":-79.4012258},{"id":"way_57611372","name":"Beaverbrook Golf Course","lat":44.9366712,"lon":-78.7171262},{"id":"way_57612459","name":"Unnamed Course","lat":44.9964614,"lon":-78.6617126},{"id":"way_57988357","name":"Unnamed Course","lat":44.8102633,"lon":-77.9263242},{"id":"way_58082885","name":"Unnamed Course","lat":44.7961587,"lon":-77.1671324},{"id":"way_58244163","name":"Bancroft Golf Course","lat":45.0884523,"lon":-77.8641904},{"id":"way_58578783","name":"Unnamed Course","lat":45.1096394,"lon":-78.609443},{"id":"way_58582927","name":"Unnamed Course","lat":45.0171333,"lon":-78.5477855},{"id":"way_58584227","name":"Pinestone Resort","lat":45.0179794,"lon":-78.5697091},{"id":"way_58738109","name":"Fort McMurray Golf Club","lat":56.711747,"lon":-111.4438373},{"id":"way_58801882","name":"Musqueam Golf & Learning Academy","lat":49.2236395,"lon":-123.1949027},{"id":"way_59442456","name":"Oak Bay Golf Club","lat":44.7971245,"lon":-79.7460517},{"id":"way_59513605","name":"East Park Golf Gardens","lat":42.9709754,"lon":-81.1717192},{"id":"way_59513607","name":"Highland Country Club","lat":42.952573,"lon":-81.2460751},{"id":"way_59513700","name":"Thames Valley Golf Club","lat":42.9628788,"lon":-81.306112},{"id":"way_59711131","name":"Cranberry Golf Course","lat":44.5121806,"lon":-80.2573374},{"id":"way_60217410","name":"Unnamed Course","lat":44.3790915,"lon":-80.2295052},{"id":"way_60699599","name":"Unnamed Course","lat":45.0313125,"lon":-79.6348189},{"id":"way_60699770","name":"Unnamed Course","lat":45.1682903,"lon":-79.6498852},{"id":"way_60701360","name":"Port Carling Golf & Country Club","lat":45.1164049,"lon":-79.5954893},{"id":"way_60701511","name":"Muskoka Lakes Golf and Country Club","lat":45.1308277,"lon":-79.6115459},{"id":"way_60702924","name":"Unnamed Course","lat":45.1698654,"lon":-79.5466124},{"id":"way_60723586","name":"Shelburne Golf & Country Club","lat":44.1209927,"lon":-80.1895479},{"id":"way_60723616","name":"Unnamed Course","lat":44.1170952,"lon":-80.0562769},{"id":"way_60848885","name":"Unnamed Course","lat":44.7826377,"lon":-81.0634912},{"id":"way_60852479","name":"Markdale Golf and Curling Club","lat":44.3255616,"lon":-80.6458636},{"id":"way_60852741","name":"Unnamed Course","lat":44.3938051,"lon":-80.5423296},{"id":"way_61225680","name":"Redwoods Golf Course","lat":49.1689656,"lon":-122.6170816},{"id":"way_61651419","name":"Hampton Golf Club","lat":45.5041521,"lon":-65.8295021},{"id":"way_62218188","name":"Rockwood Park Municipal Golf Course","lat":45.3117074,"lon":-66.0699302},{"id":"way_64953070","name":"Riverside Country Club","lat":45.3684271,"lon":-66.0012029},{"id":"way_66210192","name":"Club de golf du Manoir des Sables","lat":45.3179477,"lon":-72.1602411},{"id":"way_66515888","name":"Nakusp Golf Club","lat":50.2340787,"lon":-117.7714311},{"id":"way_66529758","name":"Orangeville Golf Club","lat":43.8955714,"lon":-80.0621905},{"id":"way_66809968","name":"Unnamed Course","lat":47.5012098,"lon":-67.3961908},{"id":"way_66884280","name":"Unnamed Course","lat":42.8748718,"lon":-79.4313585},{"id":"way_67080778","name":"Unnamed Course","lat":51.1515186,"lon":-100.4963731},{"id":"way_67139068","name":"Club de Golf de Valcourt","lat":45.4939453,"lon":-72.2993933},{"id":"way_67466009","name":"Port Dover Golf Club","lat":42.8135755,"lon":-80.2375988},{"id":"way_67474990","name":"Monthill Golf & Country Club","lat":43.0239463,"lon":-80.0058619},{"id":"way_67590591","name":"Eagle Ridge Golf Club","lat":43.6685376,"lon":-79.9105536},{"id":"way_67731856","name":"Unnamed Course","lat":43.3858751,"lon":-80.2464608},{"id":"way_67736353","name":"Puslinch Lake Golf Club","lat":43.42733,"lon":-80.2779264},{"id":"way_67752413","name":"Erin Heights Golf & Country Club","lat":43.772092,"lon":-80.0861089},{"id":"way_67789027","name":"Beaverdale Golf Club","lat":43.4662068,"lon":-80.3402535},{"id":"way_67939262","name":"Lookout Point Country Club","lat":43.0574426,"lon":-79.2997058},{"id":"way_67941273","name":"Unnamed Course","lat":42.9723124,"lon":-79.3341753},{"id":"way_67969294","name":"Fort Erie Golf Club","lat":42.9088207,"lon":-78.9757015},{"id":"way_67970161","name":"Unnamed Course","lat":42.9330288,"lon":-78.9363126},{"id":"way_67971368","name":"Unnamed Course","lat":42.9234058,"lon":-78.9475934},{"id":"way_68104794","name":"Grand Valley Golf Course","lat":43.3567479,"lon":-80.4016982},{"id":"way_68311667","name":"Springfield Golf & Country Club","lat":43.4970005,"lon":-80.176192},{"id":"way_68501046","name":"Unnamed Course","lat":51.1515512,"lon":-100.5020583},{"id":"way_68794775","name":"Unnamed Course","lat":43.3597272,"lon":-80.0117371},{"id":"way_68810780","name":"Century Pines Golf Course","lat":43.294622,"lon":-80.068844},{"id":"way_69016147","name":"Granite Springs Golf Club","lat":44.5403799,"lon":-63.8059785},{"id":"way_69278789","name":"Unnamed Course","lat":44.1410505,"lon":-80.7424865},{"id":"way_69483987","name":"Unnamed Course","lat":51.2464594,"lon":-101.3377593},{"id":"way_69743718","name":"Unnamed Course","lat":44.0539387,"lon":-80.7891824},{"id":"way_70014909","name":"Twenty Valley Golf Club","lat":43.1216999,"lon":-79.4116},{"id":"way_70046121","name":"Southbrook Golf & Country Club","lat":43.0931489,"lon":-79.8103412},{"id":"way_70049974","name":"Unnamed Course","lat":43.0699137,"lon":-79.7149717},{"id":"way_70648418","name":"Unnamed Course","lat":51.6338485,"lon":-101.6250792},{"id":"way_70711887","name":"Grandview","lat":45.3421641,"lon":-79.1569483},{"id":"way_70711889","name":"Deerhurst Lakeside Golf Course","lat":45.3429502,"lon":-79.1347214},{"id":"way_70735743","name":"Unnamed Course","lat":51.568833,"lon":-101.9138758},{"id":"way_71275044","name":"Assiniboia Golf Course","lat":49.6140214,"lon":-105.9490146},{"id":"way_71308990","name":"Unnamed Course","lat":44.7351719,"lon":-63.7584481},{"id":"way_71367611","name":"Unnamed Course","lat":51.8654516,"lon":-101.9286486},{"id":"way_71508480","name":"Club de golf de Chicoutimi","lat":48.3742975,"lon":-71.0785043},{"id":"way_71663894","name":"Moncton Golf & Country Club","lat":46.0623678,"lon":-64.7840499},{"id":"way_71697424","name":"Country Meadows Golf Club","lat":46.1606535,"lon":-64.9581199},{"id":"way_71697426","name":"Stonehurst Golf Course","lat":46.1269309,"lon":-64.9266644},{"id":"way_71761082","name":"Michipicoten Golf Club","lat":47.989696,"lon":-84.7889687},{"id":"way_71905974","name":"Shooters Golf","lat":49.9603396,"lon":-97.0797751},{"id":"way_71960907","name":"Peninsula Golf Course","lat":48.736438,"lon":-86.3682692},{"id":"way_72145083","name":"Aguasabon Golf Course","lat":48.7752103,"lon":-87.1127053},{"id":"way_72838910","name":"Golf Sainte-Marguerite","lat":50.1692599,"lon":-66.6183536},{"id":"way_72841516","name":"Picton Golf & Country Club","lat":44.0298872,"lon":-77.1375588},{"id":"way_72937955","name":"Briar Fox Golf Club","lat":44.2286865,"lon":-77.1423059},{"id":"way_72949004","name":"Bay of Quinte Country Club","lat":44.1410808,"lon":-77.444864},{"id":"way_72950113","name":"Bayview Golfing Centre","lat":44.1382321,"lon":-77.4381908},{"id":"way_73145893","name":"Trenton Golf Course","lat":44.1021158,"lon":-77.5920546},{"id":"way_73154398","name":"Unnamed Course","lat":44.0124088,"lon":-77.7433626},{"id":"way_73154735","name":"Unnamed Course","lat":44.0374755,"lon":-77.6421779},{"id":"way_73273390","name":"Murray Hills Golf Course","lat":44.1475231,"lon":-77.6980511},{"id":"way_73310997","name":"Warkworth Golf Club","lat":44.2044432,"lon":-77.8290927},{"id":"way_73325525","name":"Oakland Greens Golf & Country Club","lat":44.3499358,"lon":-77.9929192},{"id":"way_73651264","name":"Unnamed Course","lat":44.2605994,"lon":-77.5540458},{"id":"way_73752597","name":"Poplars Golf Club","lat":44.4596793,"lon":-77.2696177},{"id":"way_73791768","name":"Unnamed Course","lat":46.0786191,"lon":-67.7611615},{"id":"way_73880548","name":"Unnamed Course","lat":46.1569361,"lon":-67.5832054},{"id":"way_73915596","name":"Rideau Lakes Golf & Country Club","lat":44.6717359,"lon":-76.3591392},{"id":"way_73947362","name":"Evergreen Golf Course","lat":44.6724817,"lon":-76.4667592},{"id":"way_74120338","name":"Unnamed Course","lat":44.2835573,"lon":-76.6376022},{"id":"way_74266881","name":"Nackawic Golf Course","lat":46.0107941,"lon":-67.2431919},{"id":"way_74460871","name":"Unnamed Course","lat":44.5098389,"lon":-76.6977573},{"id":"way_75170724","name":"Unnamed Course","lat":48.3217296,"lon":-89.319402},{"id":"way_75289352","name":"Unnamed Course","lat":48.4851929,"lon":-89.3261328},{"id":"way_75289769","name":"Unnamed Course","lat":48.4529331,"lon":-89.3593119},{"id":"way_75349404","name":"Unnamed Course","lat":48.3672435,"lon":-89.4131568},{"id":"way_75493457","name":"Pinawa Golf Club","lat":50.1570828,"lon":-95.8718675},{"id":"way_75693794","name":"Unnamed Course","lat":44.8558925,"lon":-76.0335925},{"id":"way_75694001","name":"Unnamed Course","lat":44.8362774,"lon":-76.0620199},{"id":"way_75697029","name":"Sandy Lake Golf Course","lat":50.5233505,"lon":-100.1562622},{"id":"way_76271951","name":"Amberwood Village Golf and Country Club","lat":45.2694254,"lon":-75.9217928},{"id":"way_76799918","name":"Minnedosa Golf & Country Club","lat":50.2475236,"lon":-99.8567063},{"id":"way_76802284","name":"Unnamed Course","lat":43.9000143,"lon":-78.6112219},{"id":"way_76802290","name":"Unnamed Course","lat":43.8998496,"lon":-78.6142374},{"id":"way_76802293","name":"Unnamed Course","lat":43.9009021,"lon":-78.6083904},{"id":"way_76802296","name":"Unnamed Course","lat":43.9001442,"lon":-78.6068707},{"id":"way_76802298","name":"Unnamed Course","lat":43.9344498,"lon":-78.5514679},{"id":"way_76802466","name":"Unnamed Course","lat":43.9410822,"lon":-78.5562514},{"id":"way_76803625","name":"Unnamed Course","lat":43.9808709,"lon":-78.6928882},{"id":"way_76804263","name":"Bowmanville Golf and Country Club","lat":43.9494251,"lon":-78.7043158},{"id":"way_76810350","name":"Pebblestone Golf Course","lat":43.9321076,"lon":-78.8113922},{"id":"way_76819927","name":"Winchester Golf Club","lat":43.9641028,"lon":-78.9328784},{"id":"way_76820515","name":"Kedron Dells Golf Course","lat":43.9629939,"lon":-78.8838056},{"id":"way_76917318","name":"Bluenose Golf Club","lat":44.3681998,"lon":-64.3133968},{"id":"way_76918339","name":"Golf Granby St-Paul","lat":45.4287613,"lon":-72.7953185},{"id":"way_76931111","name":"Club De Golf Miner","lat":45.3925921,"lon":-72.7204895},{"id":"way_76960221","name":"Golf Château Bromont","lat":45.3079314,"lon":-72.6419183},{"id":"way_76966629","name":"Dragon's Fire Golf Club","lat":43.382068,"lon":-79.9545976},{"id":"way_77003723","name":"Golf Inverness","lat":45.2520157,"lon":-72.5559448},{"id":"way_77184849","name":"Riverbend Golf","lat":45.1379278,"lon":-75.9379947},{"id":"way_77195784","name":"Unnamed Course","lat":49.4818218,"lon":-97.0226695},{"id":"way_77197278","name":"Unnamed Course","lat":49.3614117,"lon":-97.3517623},{"id":"way_77206595","name":"Unnamed Course","lat":49.4633719,"lon":-97.0123737},{"id":"way_77418176","name":"Unnamed Course","lat":44.3379566,"lon":-79.7556151},{"id":"way_77418177","name":"Bear Creek","lat":44.3297432,"lon":-79.8149577},{"id":"way_77418179","name":"Unnamed Course","lat":44.3344632,"lon":-79.8600832},{"id":"way_77424387","name":"Unnamed Course","lat":44.297043,"lon":-79.8766724},{"id":"way_77456360","name":"Unnamed Course","lat":44.4754774,"lon":-78.606957},{"id":"way_77458947","name":"Sturgeon Point Golf Club","lat":44.4792792,"lon":-78.685754},{"id":"way_77459118","name":"Unnamed Course","lat":44.4787182,"lon":-78.68903},{"id":"way_77467392","name":"Unnamed Course","lat":44.2854014,"lon":-78.7705433},{"id":"way_77467795","name":"Unnamed Course","lat":44.2819195,"lon":-78.7726972},{"id":"way_77588224","name":"Unnamed Course","lat":50.6779657,"lon":-99.9133898},{"id":"way_77588261","name":"Unnamed Course","lat":50.651631,"lon":-99.957306},{"id":"way_77709274","name":"Unnamed Course","lat":44.4590036,"lon":-78.2726357},{"id":"way_77712362","name":"Unnamed Course","lat":44.3977661,"lon":-78.4636069},{"id":"way_77714595","name":"Kawartha Golf & Country Club","lat":44.2860405,"lon":-78.3575676},{"id":"way_77715652","name":"Peterborough Golf & Country Club","lat":44.3317522,"lon":-78.3034576},{"id":"way_77716833","name":"Liftlock Golf Club","lat":44.3081059,"lon":-78.2980086},{"id":"way_77851053","name":"Club De Golf Parcours Du Cerf","lat":45.5606301,"lon":-73.4522782},{"id":"way_77951334","name":"Unnamed Course","lat":44.2236286,"lon":-78.7585009},{"id":"way_77954093","name":"Unnamed Course","lat":44.2525828,"lon":-78.9601914},{"id":"way_77963238","name":"Unnamed Course","lat":44.0782136,"lon":-78.9635524},{"id":"way_77964454","name":"Summerlea Golf Club","lat":44.0485773,"lon":-78.879561},{"id":"way_77965863","name":"Mackenzie Golf Course","lat":55.3245562,"lon":-123.0780927},{"id":"way_78070269","name":"Unnamed Course","lat":44.0038016,"lon":-78.1544241},{"id":"way_78256784","name":"Unnamed Course","lat":50.7062238,"lon":-98.0473845},{"id":"way_78285642","name":"Unnamed Course","lat":44.2424263,"lon":-78.2439849},{"id":"way_78388259","name":"Club De Golf Rive Sud","lat":45.5048651,"lon":-73.3048285},{"id":"way_78597432","name":"Unnamed Course","lat":50.2361986,"lon":-99.4448243},{"id":"way_79146749","name":"Port Hope Golf & Country Club","lat":43.9433314,"lon":-78.31113},{"id":"way_79148352","name":"Unnamed Course","lat":43.9843798,"lon":-78.266407},{"id":"way_79148524","name":"Dalewood Golf Club","lat":43.9924944,"lon":-78.2515419},{"id":"way_79158201","name":"Unnamed Course","lat":44.538584,"lon":-78.1226458},{"id":"way_79180765","name":"Unnamed Course","lat":44.5754364,"lon":-78.5016537},{"id":"way_79181950","name":"Six Foot Bay G&CC","lat":44.5077565,"lon":-78.3899612},{"id":"way_79449064","name":"Golf Domaine de Rouville","lat":45.5124343,"lon":-73.1531503},{"id":"way_80076810","name":"Dauphin Lake Golf Club","lat":51.1469682,"lon":-99.8470029},{"id":"way_80194594","name":"Club de Golf Royal Montreal","lat":45.4945847,"lon":-73.9058768},{"id":"way_80194645","name":"Elm Ridge Country Club","lat":45.4834865,"lon":-73.9156799},{"id":"way_80295954","name":"Unnamed Course","lat":49.898059,"lon":-98.2553561},{"id":"way_80381410","name":"Unnamed Course","lat":49.1367172,"lon":-68.4022114},{"id":"way_80491536","name":"Portage Golf Club","lat":49.9659839,"lon":-98.3081504},{"id":"way_82247986","name":"Minnewasta Golf & Country Club","lat":49.1859786,"lon":-98.129397},{"id":"way_82574953","name":"The Toronto Hunt Club","lat":43.6822045,"lon":-79.2736139},{"id":"way_82624894","name":"Unnamed Course","lat":45.6356685,"lon":-71.4178073},{"id":"way_82636538","name":"Unnamed Course","lat":50.7751033,"lon":-101.2120085},{"id":"way_83228281","name":"Unnamed Course","lat":50.1243978,"lon":-100.0294188},{"id":"way_83544996","name":"Unnamed Course","lat":50.0153081,"lon":-100.3304444},{"id":"way_83571725","name":"Rossmere Golf & Country Club","lat":49.9300871,"lon":-97.083309},{"id":"way_83577133","name":"Transcona Golf Club","lat":49.8812113,"lon":-97.0229097},{"id":"way_83580802","name":"Richmond Golf Club","lat":45.6525084,"lon":-72.1533347},{"id":"way_83883819","name":"Unnamed Course","lat":50.1723733,"lon":-100.5911908},{"id":"way_84509491","name":"Brookfield Golf & Country Club","lat":45.247182,"lon":-63.2768753},{"id":"way_84549387","name":"Club de Golf Saint-Jérôme","lat":45.829186,"lon":-74.0692874},{"id":"way_84618701","name":"Club de Golf Lac Mégantic","lat":45.5047864,"lon":-70.8624398},{"id":"way_84652192","name":"Unnamed Course","lat":45.7475017,"lon":-76.1907551},{"id":"way_84830909","name":"Sandy Mountain Golf Course","lat":45.0456324,"lon":-75.5457563},{"id":"way_84830910","name":"Rideau View Golf Club","lat":45.1986191,"lon":-75.6596229},{"id":"way_84830917","name":"Unnamed Course","lat":45.1695592,"lon":-75.8417285},{"id":"way_84830947","name":"Rideau Glen Golf Club","lat":45.0475758,"lon":-75.673211},{"id":"way_84830959","name":"Manderley Golf & Country Club","lat":45.1798924,"lon":-75.7304582},{"id":"way_85048140","name":"Hylands Golf Course","lat":45.3185821,"lon":-75.6445633},{"id":"way_85222155","name":"Unnamed Course","lat":49.0238261,"lon":-97.5673566},{"id":"way_85223508","name":"Unnamed Course","lat":49.1811388,"lon":-97.9641788},{"id":"way_85375032","name":"Unnamed Course","lat":50.119991,"lon":-101.0208855},{"id":"way_85541094","name":"Unnamed Course","lat":46.3913576,"lon":-73.7041884},{"id":"way_85631493","name":"Club de golf Saint-Jean-de-Matha","lat":46.2874422,"lon":-73.563552},{"id":"way_85773382","name":"Sleepy Hollow Country Club","lat":43.9987306,"lon":-79.2433595},{"id":"way_86172860","name":"Unnamed Course","lat":49.2333364,"lon":-98.5430887},{"id":"way_86176855","name":"Unnamed Course","lat":49.195736,"lon":-98.8649679},{"id":"way_86366666","name":"Halcrow Lake Golf and Country Club","lat":53.8136086,"lon":-101.2604027},{"id":"way_86367732","name":"Unnamed Course","lat":53.8567252,"lon":-101.3363146},{"id":"way_87218901","name":"Eaglequest Golf","lat":49.2314078,"lon":-122.8688758},{"id":"way_87361916","name":"Kingsway Golf and Country Club","lat":45.4744128,"lon":-75.8589186},{"id":"way_87362397","name":"Thunderbird Sports Centre","lat":45.3039076,"lon":-75.9586551},{"id":"way_87362601","name":"Club de Golf Rivermead","lat":45.3965347,"lon":-75.7904583},{"id":"way_87362769","name":"Irish Hills Golf & Country Club","lat":45.3282207,"lon":-76.0032073},{"id":"way_87362778","name":"The 19th Tee","lat":45.3447764,"lon":-75.8773057},{"id":"way_87363060","name":"Emerald Links Golf Club","lat":45.2582889,"lon":-75.6088988},{"id":"way_87363276","name":"Stan's Driving Range & Miniature Golf","lat":45.3060696,"lon":-75.9545852},{"id":"way_87363604","name":"Royal Ottawa Golf Club","lat":45.4175654,"lon":-75.7707384},{"id":"way_88219416","name":"Les Vieux-Moulins Golf Club","lat":45.4182458,"lon":-75.8630762},{"id":"way_88397380","name":"Unnamed Course","lat":45.5195781,"lon":-75.4966707},{"id":"way_88836748","name":"Metcalfe Golf Course","lat":45.26065,"lon":-75.4988987},{"id":"way_89617620","name":"Gleneagles Golf Course","lat":49.3636907,"lon":-123.2790498},{"id":"way_90863849","name":"Kitimat Golf Course","lat":54.0770976,"lon":-128.6354194},{"id":"way_90934592","name":"Unnamed Course","lat":49.1520773,"lon":-100.4104763},{"id":"way_91534242","name":"Glen Mar","lat":45.1996604,"lon":-76.0016701},{"id":"way_91838615","name":"Unnamed Course","lat":49.2105223,"lon":-100.0551306},{"id":"way_91998511","name":"Summerheights Golf Links","lat":45.0635712,"lon":-74.7345432},{"id":"way_92153444","name":"Cornwall Golf and Country Club","lat":45.0413001,"lon":-74.6537402},{"id":"way_92195966","name":"Archie's Family Golf Centre","lat":45.0331354,"lon":-74.7685685},{"id":"way_92360942","name":"Glengarry Golf & Country Club","lat":45.3214727,"lon":-74.6328272},{"id":"way_92545261","name":"Club de golf Valleyfield","lat":45.2902314,"lon":-74.1047418},{"id":"way_92549474","name":"Club de Golf Vaudreuil","lat":45.3516894,"lon":-74.0203173},{"id":"way_92555953","name":"Club de Golf Rivière-Rouge","lat":45.3136435,"lon":-74.2009207},{"id":"way_92596625","name":"Club de Golf d'Oka","lat":45.4660715,"lon":-74.094319},{"id":"way_92596930","name":"Como Golf Club","lat":45.4440898,"lon":-74.1261497},{"id":"way_92686712","name":"Club de Golf le Victorien","lat":45.6420495,"lon":-74.1186572},{"id":"way_92701160","name":"Club de Golf le Griffon des Sources","lat":45.634597,"lon":-74.232678},{"id":"way_92831601","name":"Unnamed Course","lat":43.9572485,"lon":-78.9367371},{"id":"way_93169703","name":"Skeena Valley Golf & Country Club","lat":54.510939,"lon":-128.5101757},{"id":"way_93828747","name":"Copper Creek Golf Club","lat":43.8593629,"lon":-79.6361587},{"id":"way_94347807","name":"Banty's Roost Golf & Country Club","lat":43.785911,"lon":-79.8066322},{"id":"way_95480790","name":"Unnamed Course","lat":49.8018868,"lon":-99.6151538},{"id":"way_95690998","name":"Wildewood Club Golf Course","lat":49.8492006,"lon":-97.1370973},{"id":"way_96049846","name":"Cardiff Golf & Country Club,","lat":53.7683708,"lon":-113.5900718},{"id":"way_96216216","name":"Assiniboine Golf Club","lat":49.8871755,"lon":-97.2329386},{"id":"way_96680026","name":"Capilano Golf & Country Club","lat":49.3501255,"lon":-123.1251784},{"id":"way_96776910","name":"JR Golf Course","lat":53.6072703,"lon":-113.7833721},{"id":"way_96781614","name":"Glendale Golf & Country Club","lat":53.5813407,"lon":-113.6695411},{"id":"way_96798013","name":"Westlock Golf Course","lat":54.1561489,"lon":-113.9476765},{"id":"way_96901951","name":"Unnamed Course","lat":54.099345,"lon":-114.4393352},{"id":"way_96903247","name":"Unnamed Course","lat":54.1142394,"lon":-114.4057088},{"id":"way_97070013","name":"Unnamed Course","lat":53.7351025,"lon":-114.4073202},{"id":"way_97649832","name":"Magnetic Hill Golf Club","lat":46.135786,"lon":-64.8735162},{"id":"way_97793806","name":"Redwater Community Golf Club","lat":53.9526549,"lon":-113.1207366},{"id":"way_97807614","name":"Fort Sask Golf and Curling Club","lat":53.7056224,"lon":-113.2026322},{"id":"way_97924349","name":"Scenic Woods Golf Club","lat":43.1380649,"lon":-79.7298231},{"id":"way_98064520","name":"Larters at St. Andrews","lat":50.0372822,"lon":-97.017741},{"id":"way_98065564","name":"Unnamed Course","lat":43.1932598,"lon":-79.9297372},{"id":"way_98088369","name":"Southern Pines Golf & Country Club","lat":43.1502605,"lon":-79.9129123},{"id":"way_98088426","name":"Unnamed Course","lat":43.1875343,"lon":-79.9300254},{"id":"way_98560388","name":"Yarmouth Links","lat":43.8218683,"lon":-66.117087},{"id":"way_98595518","name":"Unnamed Course","lat":53.0506148,"lon":-113.9929555},{"id":"way_98675845","name":"Unnamed Course","lat":53.1162183,"lon":-114.4719962},{"id":"way_98766209","name":"Club de golf de Cacouna","lat":47.9185347,"lon":-69.4893084},{"id":"way_98814897","name":"Club de golf Rivière-du-Loup","lat":47.804318,"lon":-69.5773794},{"id":"way_98956821","name":"West Pubnico Golf & Country Club","lat":43.7226272,"lon":-65.7839137},{"id":"way_99181222","name":"River Hills Golf & Country Club","lat":43.6189778,"lon":-65.475334},{"id":"way_99258983","name":"Club de Golf Royal-Estrie","lat":45.7851991,"lon":-71.9326883},{"id":"way_99260079","name":"Unnamed Course","lat":45.783371,"lon":-71.8931979},{"id":"way_99334651","name":"Unnamed Course","lat":45.9339128,"lon":-72.0059864},{"id":"way_99365847","name":"John Blumberg Golf Course","lat":49.8701061,"lon":-97.3666354},{"id":"way_99411107","name":"Club de Golf WindMill Heights","lat":45.3582025,"lon":-73.9036387},{"id":"way_99441447","name":"Club de Golf Le Drummond","lat":45.9555583,"lon":-72.6071428},{"id":"way_99441833","name":"Club De Golf L'Emeraude","lat":45.9331722,"lon":-72.6094887},{"id":"way_99640485","name":"Phantom Lake Golf Club Inc","lat":54.7489258,"lon":-101.8723744},{"id":"way_99816541","name":"Club de Golf Thetford","lat":46.0945696,"lon":-71.2817382},{"id":"way_99824256","name":"Mont Adstock","lat":46.0284265,"lon":-71.1856512},{"id":"way_99969096","name":"Club de Golf St-Georges","lat":46.1932323,"lon":-70.6108502},{"id":"way_99972720","name":"Unnamed Course","lat":46.1956993,"lon":-70.6036527},{"id":"way_100041499","name":"Mountain Meadows GC","lat":50.0129997,"lon":-114.9198014},{"id":"way_100238183","name":"Le golf les Vieilles Forges","lat":46.3859734,"lon":-72.6528694},{"id":"way_100239624","name":"Club De Golf Louiseville","lat":46.2707207,"lon":-72.9667265},{"id":"way_100242486","name":"Club de Golf Godefroy","lat":46.3058483,"lon":-72.5398524},{"id":"way_100253974","name":"Club de Golf Le Domaine","lat":46.4886955,"lon":-72.8221242},{"id":"way_100253978","name":"Unnamed Course","lat":46.3932049,"lon":-72.6084751},{"id":"way_100260034","name":"Club De Golf Ki-8-Eb","lat":46.3845974,"lon":-72.6197282},{"id":"way_100368189","name":"Club de Golf Sainte-Marie","lat":46.460995,"lon":-71.0702366},{"id":"way_100397117","name":"Greenwood Golf Club","lat":44.9900502,"lon":-64.9242523},{"id":"way_100487085","name":"Paragon Golf and Country Club","lat":44.9795823,"lon":-64.9569842},{"id":"way_100499543","name":"Club de golf de Plessiville","lat":46.2620838,"lon":-71.7237157},{"id":"way_100559482","name":"Club de golf Douville","lat":45.6147886,"lon":-72.978191},{"id":"way_100562384","name":"Golf le Rocher de Roxton-Pond","lat":45.5081427,"lon":-72.6294068},{"id":"way_100565016","name":"Unnamed Course","lat":45.6512598,"lon":-72.6030349},{"id":"way_100576250","name":"King's Forest Golf Club","lat":43.2147937,"lon":-79.8096106},{"id":"way_100576737","name":"Pros Golf Centre","lat":43.1971576,"lon":-79.7638707},{"id":"way_100576866","name":"Glendale Golf and Country Club","lat":43.2085201,"lon":-79.8011628},{"id":"way_100578059","name":"Club de golf Dorchester","lat":46.488754,"lon":-70.8338469},{"id":"way_100582203","name":"Club de Golf de Lac-Etchemin","lat":46.421857,"lon":-70.5236053},{"id":"way_101296269","name":"Unnamed Course","lat":52.9524947,"lon":-114.0323932},{"id":"way_101433302","name":"Mont-Cascades","lat":45.6098785,"lon":-75.8848791},{"id":"way_101459526","name":"Club de golf Vallée de la Lièvre","lat":46.5668619,"lon":-75.4084516},{"id":"way_101476939","name":"Unnamed Course","lat":56.324507,"lon":-120.9959327},{"id":"way_101675673","name":"Unnamed Course","lat":52.6581872,"lon":-113.5709387},{"id":"way_101747237","name":"Melfort Golf and Country Club","lat":52.8529638,"lon":-104.5979359},{"id":"way_101750767","name":"Golf de Sainte-Flore","lat":46.6165747,"lon":-72.7462067},{"id":"way_101751038","name":"Golf Le Memorial","lat":46.5458711,"lon":-72.7072263},{"id":"way_101753958","name":"Club de Golf de Grand-Mère","lat":46.6249442,"lon":-72.6922855},{"id":"way_101849373","name":"Club de Golf de Coaticook","lat":45.1120321,"lon":-71.8132475},{"id":"way_101870053","name":"Club de Golf Des Pins","lat":46.7481757,"lon":-72.0402979},{"id":"way_101896369","name":"Club de golf de Cap Rouge","lat":46.7431483,"lon":-71.3715652},{"id":"way_101913330","name":"Club de golf Lotbinière","lat":46.5872631,"lon":-71.3618116},{"id":"way_101913439","name":"Unnamed Course","lat":46.6634634,"lon":-71.2609085},{"id":"way_102002174","name":"Club De Golf Donnacona","lat":46.6713303,"lon":-71.73435},{"id":"way_102179719","name":"Fernie Golf & Country Club","lat":49.516565,"lon":-115.0476767},{"id":"way_102351064","name":"Kamloops Golf & Country Club","lat":50.7105313,"lon":-120.4462333},{"id":"way_102753564","name":"Champ de Pratique","lat":46.3893811,"lon":-75.0251229},{"id":"way_102753940","name":"Club & Hotel Du Golf Nominique","lat":46.3921067,"lon":-75.0183988},{"id":"way_102919276","name":"Unnamed Course","lat":50.3981009,"lon":-97.24074},{"id":"way_103193739","name":"Golf de Maniwaki","lat":46.3836038,"lon":-75.9710836},{"id":"way_103276452","name":"Falcon Lake Golf Course","lat":49.6834468,"lon":-95.3398306},{"id":"way_103475261","name":"River Bend Golf Course","lat":46.1000677,"lon":-66.6060031},{"id":"way_103582221","name":"Unnamed Course","lat":49.0903178,"lon":-99.3838191},{"id":"way_103604031","name":"Unnamed Course","lat":54.8891514,"lon":-100.0322489},{"id":"way_103619503","name":"Gilridge Golf Course","lat":45.9973847,"lon":-66.7122378},{"id":"way_103864181","name":"Golf Orléans","lat":46.8503046,"lon":-71.1317583},{"id":"way_103896949","name":"Club de Golf Alpin","lat":46.9929105,"lon":-71.2053105},{"id":"way_103910390","name":"Unnamed Course","lat":49.1963354,"lon":-99.7094219},{"id":"way_104074803","name":"Club de Golf Bellechasse","lat":46.6216978,"lon":-70.6996416},{"id":"way_104076634","name":"Unnamed Course","lat":46.6250293,"lon":-70.6967638},{"id":"way_104201652","name":"Yellowknife Golf Club","lat":62.476185,"lon":-114.4744659},{"id":"way_104223011","name":"Unnamed Course","lat":54.0472495,"lon":-123.998421},{"id":"way_104292655","name":"Carmen Creek Golf Course","lat":45.9370608,"lon":-66.6137235},{"id":"way_104322404","name":"Golf Le Castor","lat":46.9133722,"lon":-71.4640178},{"id":"way_104332350","name":"Club de Golf Saint-Laurent","lat":46.8859484,"lon":-70.9881003},{"id":"way_104437335","name":"Unnamed Course","lat":46.7652294,"lon":-71.6203819},{"id":"way_104438879","name":"Club de golf Lac Saint-Joseph","lat":46.8549866,"lon":-71.6087632},{"id":"way_104448254","name":"Aspen Golf Course","lat":53.8187552,"lon":-122.6627666},{"id":"way_104579999","name":"Le Grand Vallon","lat":47.0677398,"lon":-70.913008},{"id":"way_104592566","name":"Le Saint-Rémi","lat":46.8528133,"lon":-72.4504608},{"id":"way_104715266","name":"Unnamed Course","lat":47.1642722,"lon":-70.2947956},{"id":"way_104899121","name":"Club de Murray Bay","lat":47.6462497,"lon":-70.1606259},{"id":"way_104937224","name":"Pleasant Valley Golf Club","lat":49.2767518,"lon":-99.4611426},{"id":"way_104946793","name":"Golf Hermitage","lat":45.2285557,"lon":-72.187147},{"id":"way_104958474","name":"Club de golf de Baie St-Paul","lat":47.4485297,"lon":-70.5327382},{"id":"way_105025842","name":"Sandpiper Golf Course","lat":49.2550244,"lon":-121.9459653},{"id":"way_105059092","name":"Club de Golf & Curling la Tuque","lat":47.4351188,"lon":-72.7913614},{"id":"way_105651442","name":"Club de Golf Tadoussac","lat":48.1443388,"lon":-69.7065847},{"id":"way_105857433","name":"Unnamed Course","lat":45.469243,"lon":-77.6293093},{"id":"way_106162063","name":"Golf Mont Ste-Marie","lat":45.9422119,"lon":-75.8909756},{"id":"way_106176079","name":"Club De Golf Royal Papineau","lat":45.8298132,"lon":-75.536167},{"id":"way_106204951","name":"Club de Golf Montpellier","lat":45.8639772,"lon":-75.1216884},{"id":"way_106217001","name":"Steinbach Fly-In Golf Club","lat":49.541374,"lon":-96.674671},{"id":"way_106217647","name":"Oakwood Golf Course","lat":49.6577729,"lon":-96.5310967},{"id":"way_106218261","name":"The Shamrock","lat":49.7496658,"lon":-96.949675},{"id":"way_106218664","name":"Unnamed Course","lat":49.6704676,"lon":-96.519748},{"id":"way_106563634","name":"The Meadows Golf and Country Club","lat":45.3309874,"lon":-75.5657197},{"id":"way_106855074","name":"Unnamed Course","lat":46.1834932,"lon":-60.0668733},{"id":"way_106855438","name":"Lingan Golf Club","lat":46.1751557,"lon":-60.0993862},{"id":"way_107497459","name":"Little Bear Golf Course","lat":49.2741604,"lon":-117.6366021},{"id":"way_107499674","name":"Eagle Crest Golf Course","lat":45.122049,"lon":-64.5102761},{"id":"way_107896647","name":"Unnamed Course","lat":49.3913387,"lon":-121.4339064},{"id":"way_108641032","name":"Cornerstone Golf Club","lat":45.2401139,"lon":-81.6370469},{"id":"way_108709779","name":"Welsford Golf Course","lat":45.4607861,"lon":-66.3370722},{"id":"way_108711368","name":"Oakfield","lat":44.9123179,"lon":-63.5745048},{"id":"way_108711573","name":"Gage Golf and Curling Club","lat":45.8452514,"lon":-66.4972222},{"id":"way_108800442","name":"Westfield Golf & Country Club","lat":45.3346545,"lon":-66.2227398},{"id":"way_109567604","name":"Club de Golf le Portage","lat":45.8348229,"lon":-73.4357095},{"id":"way_109662443","name":"Club de Golf de Lanaudière","lat":45.8019646,"lon":-73.4626292},{"id":"way_109662450","name":"Club de Golf de la Presqu'île","lat":45.8115377,"lon":-73.4693658},{"id":"way_109662456","name":"Club de Golf de l'Épiphanie","lat":45.8694328,"lon":-73.5069512},{"id":"way_110457602","name":"Petitcodiac Golf and Country Club","lat":45.952602,"lon":-65.2087422},{"id":"way_110993297","name":"Unnamed Course","lat":48.448614,"lon":-71.1730688},{"id":"way_111033393","name":"Golf Sutton","lat":45.097621,"lon":-72.6158111},{"id":"way_111196021","name":"Beddington Golf Park","lat":51.1354298,"lon":-114.0662006},{"id":"way_112413755","name":"Ridgeview Greens Golf Club","lat":46.1779051,"lon":-66.0337938},{"id":"way_112873458","name":"Deer Park Golf Course","lat":51.2064477,"lon":-102.5019407},{"id":"way_112931608","name":"Unnamed Course","lat":44.6313897,"lon":-81.2194626},{"id":"way_113020216","name":"Glencairn Golf Club","lat":43.5609511,"lon":-79.9397632},{"id":"way_113215447","name":"Legacy Ridge Golf Club","lat":44.613357,"lon":-80.9526338},{"id":"way_113338523","name":"Quilchena Golf Course","lat":50.1577397,"lon":-120.5157296},{"id":"way_113350293","name":"Unnamed Course","lat":44.5105286,"lon":-81.3533558},{"id":"way_113357410","name":"Unnamed Course","lat":44.5617551,"lon":-81.2137799},{"id":"way_113609071","name":"Scenic City Golf Course","lat":44.5773295,"lon":-80.8532668},{"id":"way_113651812","name":"Meaford Golf Club","lat":44.6089429,"lon":-80.6087427},{"id":"way_113887579","name":"Unnamed Course","lat":44.4714198,"lon":-81.3524562},{"id":"way_113892952","name":"Unnamed Course","lat":44.4184733,"lon":-81.4053823},{"id":"way_113999204","name":"Unnamed Course","lat":45.7446667,"lon":-82.1770727},{"id":"way_114661892","name":"Club de Golf Mont St-Grégoire","lat":45.3513166,"lon":-73.1885045},{"id":"way_114666245","name":"Unnamed Course","lat":45.2812735,"lon":-73.2484695},{"id":"way_114937046","name":"Unnamed Course","lat":45.2418917,"lon":-73.2326611},{"id":"way_114974490","name":"Club de Golf International 2000","lat":45.012931,"lon":-73.4213225},{"id":"way_115010322","name":"Club De Golf Baie Missisquoi","lat":45.08081,"lon":-73.1603931},{"id":"way_115311523","name":"Athabasca Golf & Country Club","lat":54.7384659,"lon":-113.2786148},{"id":"way_115575178","name":"Unnamed Course","lat":50.805948,"lon":-121.3089719},{"id":"way_115932478","name":"Unnamed Course","lat":44.2393271,"lon":-81.5718153},{"id":"way_115932913","name":"Kincardine Golf Club","lat":44.1901149,"lon":-81.6324307},{"id":"way_115941012","name":"Unnamed Course","lat":44.1455578,"lon":-81.6436928},{"id":"way_116017457","name":"Unnamed Course","lat":44.1357132,"lon":-81.1759479},{"id":"way_116024648","name":"Unnamed Course","lat":44.150104,"lon":-81.0737002},{"id":"way_116674442","name":"Huron Oaks Golf Course","lat":43.020174,"lon":-82.2634426},{"id":"way_116711633","name":"Unnamed Course","lat":43.0475882,"lon":-82.1409371},{"id":"way_116711799","name":"Unnamed Course","lat":43.025736,"lon":-82.1262738},{"id":"way_116712281","name":"Unnamed Course","lat":43.0867765,"lon":-82.0066372},{"id":"way_116983433","name":"Highland Links Golf Course","lat":46.6573149,"lon":-60.4026481},{"id":"way_117020698","name":"Unnamed Course","lat":44.8806363,"lon":-66.9322602},{"id":"way_117078031","name":"Le Portage Golf Club","lat":46.6408661,"lon":-60.9897584},{"id":"way_117518840","name":"Unnamed Course","lat":46.3327331,"lon":-61.1005921},{"id":"way_117596878","name":"Cordova Bay Golf Course - Ridge Course","lat":48.5306345,"lon":-123.3769491},{"id":"way_117698173","name":"Unnamed Course","lat":46.1803231,"lon":-60.7647244},{"id":"way_117768499","name":"Woodside Golf Course","lat":51.2963641,"lon":-114.0299806},{"id":"way_117768500","name":"Woodside Golf Course","lat":51.2969382,"lon":-114.0408667},{"id":"way_117879866","name":"Sarnia Golf and Curling","lat":42.9940862,"lon":-82.3935699},{"id":"way_117880219","name":"Holiday Inn Golf Course","lat":42.9895986,"lon":-82.4124843},{"id":"way_117880266","name":"Unnamed Course","lat":42.9941554,"lon":-82.3993702},{"id":"way_117908764","name":"Unnamed Course","lat":52.6125801,"lon":-114.2477447},{"id":"way_117909886","name":"Unnamed Course","lat":52.6145372,"lon":-114.2500384},{"id":"way_117949264","name":"St. Clair Parkway Golf Course","lat":42.8426635,"lon":-82.4534696},{"id":"way_118642831","name":"Bally Haly Golf Club","lat":47.5895181,"lon":-52.698501},{"id":"way_118642833","name":"Bally Haly Golf Club","lat":47.589603,"lon":-52.6961056},{"id":"way_119107965","name":"Savage Creek Golf Course","lat":49.160737,"lon":-123.0631987},{"id":"way_119107990","name":"Country Meadows Golf Course","lat":49.15092,"lon":-123.0633526},{"id":"way_119278909","name":"Streetsville Glen Golf Course","lat":43.6231993,"lon":-79.7654873},{"id":"way_119410985","name":"Unnamed Course","lat":46.1941089,"lon":-73.7498949},{"id":"way_119412375","name":"Unnamed Course","lat":45.0182551,"lon":-73.7666631},{"id":"way_119426016","name":"Piper's Heath Golf Club","lat":43.5299563,"lon":-79.7682209},{"id":"way_119524313","name":"Unnamed Course","lat":46.1938765,"lon":-73.7518994},{"id":"way_119879855","name":"Derrydale Golf Course","lat":43.6435092,"lon":-79.7134599},{"id":"way_121258410","name":"King's Riding Golf Club","lat":43.9803191,"lon":-79.4983561},{"id":"way_121498103","name":"Unnamed Course","lat":50.8269053,"lon":-119.6914484},{"id":"way_121498156","name":"Unnamed Course","lat":50.8242173,"lon":-119.6912353},{"id":"way_121758800","name":"Eagles Nest Golf Club","lat":43.8672555,"lon":-79.4946573},{"id":"way_121874097","name":"Club de Golf Triangle d'Or","lat":45.2430332,"lon":-73.5919871},{"id":"way_121969929","name":"Hillcrest Golf Club","lat":50.4078146,"lon":-105.5250142},{"id":"way_122345387","name":"Unnamed Course","lat":45.1557114,"lon":-73.5773319},{"id":"way_122486057","name":"Hemmingford Sport & Country Club","lat":45.0388279,"lon":-73.6016054},{"id":"way_122486385","name":"Glacier Greens Golf Course","lat":49.7063623,"lon":-124.8911411},{"id":"way_122494763","name":"Mulligans Golf Course","lat":49.7204111,"lon":-125.0022012},{"id":"way_123163572","name":"Unnamed Course","lat":45.0805484,"lon":-74.4237591},{"id":"way_123226673","name":"Ashburn Golf Club - New Course","lat":44.8160555,"lon":-63.6535047},{"id":"way_123398876","name":"Granite Golf Club","lat":44.0033108,"lon":-79.2255345},{"id":"way_123417403","name":"Unnamed Course","lat":50.015917,"lon":-119.4919982},{"id":"way_123534921","name":"Unnamed Course","lat":45.2033229,"lon":-74.3551294},{"id":"way_123535011","name":"Golf Rivière Beaudette","lat":45.2286601,"lon":-74.342242},{"id":"way_124148814","name":"Cardinal Golf Course","lat":44.0406334,"lon":-79.5696528},{"id":"way_124598301","name":"Vernon Golf Club","lat":50.2447412,"lon":-119.2675002},{"id":"way_124946524","name":"Riverbend Golf Club","lat":42.979254,"lon":-81.3539909},{"id":"way_124951239","name":"London Hunt and Country Club","lat":42.9763207,"lon":-81.3405843},{"id":"way_125109504","name":"Unnamed Course","lat":45.8749361,"lon":-82.4559484},{"id":"way_125115069","name":"Manitoulin Island Country Club","lat":45.8781317,"lon":-82.4592799},{"id":"way_125343005","name":"Unnamed Course","lat":49.5822958,"lon":-99.3078679},{"id":"way_125388410","name":"Oakville Executive Golf Course","lat":43.4825533,"lon":-79.7843998},{"id":"way_126305507","name":"Unnamed Course","lat":45.7561145,"lon":-79.4101194},{"id":"way_126311100","name":"Edmonton Country Club and Golf Course","lat":53.4902286,"lon":-113.6055371},{"id":"way_126369124","name":"Unnamed Course","lat":45.8322031,"lon":-79.4795731},{"id":"way_126646151","name":"Carman Golf Course","lat":49.505345,"lon":-98.0081092},{"id":"way_127014266","name":"Big Cedar Golf & Country Club","lat":44.2964525,"lon":-79.5325768},{"id":"way_127291328","name":"Canterbury Common Residents' Association","lat":44.1192638,"lon":-78.9481599},{"id":"way_127291353","name":"Canterbury Common Residents' Association","lat":44.1192026,"lon":-78.9516341},{"id":"way_127378320","name":"Kenora Golf & Country Club","lat":49.7529525,"lon":-94.4713859},{"id":"way_127656343","name":"Unnamed Course","lat":49.8298186,"lon":-94.338821},{"id":"way_128331624","name":"Unnamed Course","lat":49.9907312,"lon":-94.6670119},{"id":"way_128462229","name":"Mount Paul Golf Course","lat":50.6883898,"lon":-120.3183072},{"id":"way_128569137","name":"Pineridge Golf Course","lat":50.668191,"lon":-120.1975144},{"id":"way_128580047","name":"Unnamed Course","lat":43.8497529,"lon":-78.9817094},{"id":"way_128580048","name":"Unnamed Course","lat":43.8441505,"lon":-78.98331},{"id":"way_128945140","name":"Unnamed Course","lat":46.1595471,"lon":-80.3726356},{"id":"way_129021077","name":"Bob Martin","lat":42.9256718,"lon":-81.2836786},{"id":"way_129073661","name":"Club de Golf Belle Vue","lat":45.3453755,"lon":-73.7909472},{"id":"way_129076357","name":"French River Golf Course and Country Club","lat":46.0156612,"lon":-80.5463017},{"id":"way_129078422","name":"Unnamed Course","lat":46.086277,"lon":-80.6185873},{"id":"way_131877741","name":"Unnamed Course","lat":45.6532971,"lon":-79.6588996},{"id":"way_132107696","name":"Southwood Golf & Country Club","lat":49.7528928,"lon":-97.1603563},{"id":"way_132219871","name":"Unnamed Course","lat":45.4160665,"lon":-63.1876184},{"id":"way_132873320","name":"Unnamed Course","lat":55.7775659,"lon":-97.8272219},{"id":"way_133440118","name":"Unnamed Course","lat":49.3374795,"lon":-119.7210555},{"id":"way_135453784","name":"Gander Golf Club","lat":48.9557899,"lon":-54.6340123},{"id":"way_136598805","name":"Club de Golf Fraser Edmundston","lat":47.380624,"lon":-68.3403003},{"id":"way_136973859","name":"Unnamed Course","lat":52.8403069,"lon":-102.3861523},{"id":"way_137364646","name":"River Road Golf Course","lat":42.9742532,"lon":-81.1436849},{"id":"way_137505828","name":"Unnamed Course","lat":51.8545728,"lon":-102.4386911},{"id":"way_137606425","name":"Unnamed Course","lat":51.632458,"lon":-102.4213511},{"id":"way_138095504","name":"Unnamed Course","lat":49.8507855,"lon":-100.0034392},{"id":"way_138097396","name":"Sunnyside Golf Club","lat":49.8240299,"lon":-100.0363483},{"id":"way_138183591","name":"Unnamed Course","lat":43.3795051,"lon":-80.3351537},{"id":"way_139165780","name":"Unnamed Course","lat":45.0115699,"lon":-73.414889},{"id":"way_140181322","name":"Falcon Ridge Golf Course","lat":45.2922075,"lon":-75.6212843},{"id":"way_140441482","name":"Unnamed Course","lat":51.635287,"lon":-99.9399561},{"id":"way_140907484","name":"Deer Ridge Golf Course","lat":43.4070991,"lon":-80.4218628},{"id":"way_142027792","name":"Bootleg Gap Golf Course","lat":49.6276199,"lon":-115.9440992},{"id":"way_142238843","name":"Unnamed Course","lat":52.4667931,"lon":-113.7540201},{"id":"way_142336085","name":"Balmoral Golf Course","lat":52.2776328,"lon":-113.7248256},{"id":"way_142752116","name":"Unnamed Course","lat":52.3299751,"lon":-114.0583831},{"id":"way_143000244","name":"Unnamed Course","lat":50.3583414,"lon":-119.28388},{"id":"way_143037386","name":"Club de Golf de Murdochiville","lat":48.932578,"lon":-65.4095033},{"id":"way_143041236","name":"Club de golf Revermont","lat":48.444595,"lon":-67.3904668},{"id":"way_143680462","name":"National Pines Golf Club","lat":44.3229971,"lon":-79.6538028},{"id":"way_143757757","name":"Unnamed Course","lat":48.9416404,"lon":-57.9246397},{"id":"way_143933200","name":"Salmon Arm Golf Club","lat":50.680768,"lon":-119.2213424},{"id":"way_144013603","name":"Unnamed Course","lat":49.643614,"lon":-98.6363763},{"id":"way_144254648","name":"Whispering Winds of Warren","lat":50.1340452,"lon":-97.5224739},{"id":"way_144367006","name":"Innisfail Golf Club","lat":52.040535,"lon":-113.9726924},{"id":"way_144950856","name":"Shadow Ridge Golf Club","lat":49.9430616,"lon":-119.3818945},{"id":"way_145079891","name":"Mission Creek Golf Club","lat":49.8567417,"lon":-119.4531879},{"id":"way_145388265","name":"Harvest Golf Course","lat":49.8538839,"lon":-119.4255645},{"id":"way_145627105","name":"Unnamed Course","lat":49.8379982,"lon":-119.4708251},{"id":"way_146061680","name":"Unnamed Course","lat":50.9660756,"lon":-119.1734285},{"id":"way_146505997","name":"Unnamed Course","lat":49.4588076,"lon":-120.4617862},{"id":"way_147382994","name":"Dragonfly Golf Links at Renfrew","lat":45.4512054,"lon":-76.7194874},{"id":"way_147382995","name":"Renfrew Golf Club","lat":45.5152675,"lon":-76.754518},{"id":"way_147383078","name":"Whitetail Golf Club","lat":45.5456556,"lon":-77.0235215},{"id":"way_147707703","name":"Golf Exécutif Montréal","lat":45.4514884,"lon":-73.5571558},{"id":"way_147987241","name":"Sussex Golf and Curling Club","lat":45.7112687,"lon":-65.4406074},{"id":"way_148160615","name":"Fundy National Park Golf Course","lat":45.5909218,"lon":-64.9628199},{"id":"way_148587160","name":"Carlisle Golf and Country Club","lat":43.4122861,"lon":-79.9630404},{"id":"way_148587161","name":"Unnamed Course","lat":43.4154583,"lon":-79.9712337},{"id":"way_148704390","name":"Golf Campus","lat":46.7862422,"lon":-71.2719219},{"id":"way_148772044","name":"Club de Golf Les Quatre Domaines","lat":45.667371,"lon":-73.9124708},{"id":"way_149696199","name":"Sackville Golf & Country Club","lat":45.8881023,"lon":-64.3883355},{"id":"way_149699629","name":"St. Andrews Valley Golf Club","lat":44.0255432,"lon":-79.4588519},{"id":"way_149928171","name":"Unnamed Course","lat":45.8445034,"lon":-64.1703256},{"id":"way_150355356","name":"Unnamed Course","lat":48.5326468,"lon":-58.5585462},{"id":"way_150672160","name":"Elmwood Golf Course","lat":50.2974191,"lon":-107.7750473},{"id":"way_151269713","name":"Ardmore Golf Course","lat":48.6352627,"lon":-123.4621014},{"id":"way_151292667","name":"Henderson Park Golf Course","lat":48.4565837,"lon":-123.3125809},{"id":"way_151298465","name":"Metchosin Golf Course & Country Club","lat":48.3891173,"lon":-123.5292984},{"id":"way_151673971","name":"Aroostook Valley Country Club","lat":46.8031149,"lon":-67.7820644},{"id":"way_151800118","name":"Plaster Rock Golf & Curling Club","lat":46.904488,"lon":-67.3858814},{"id":"way_152133739","name":"Whistle Bear Golf","lat":43.3669656,"lon":-80.3988957},{"id":"way_153751839","name":"Mount Douglas Golf Course","lat":48.4817326,"lon":-123.3502122},{"id":"way_154084223","name":"Market Sports KW","lat":43.5137973,"lon":-80.5507412},{"id":"way_154244149","name":"Connaught Golf Club","lat":50.0133054,"lon":-110.6734423},{"id":"way_154471671","name":"Medicine Hat Golf and Country Club","lat":50.0482307,"lon":-110.6597486},{"id":"way_154776342","name":"RiverEdge Golf Course","lat":43.4009494,"lon":-80.3970626},{"id":"way_155186954","name":"Cordova Bay Golf Course - Bay Course","lat":48.5352915,"lon":-123.3726915},{"id":"way_155251906","name":"Unnamed Course","lat":49.1794102,"lon":-123.066851},{"id":"way_155370662","name":"Jasper Park Lodge Golf Club","lat":52.883388,"lon":-118.048049},{"id":"way_155374050","name":"Wascana Country Club","lat":50.4133221,"lon":-104.5619845},{"id":"way_155526895","name":"La Verendrye Golf Course","lat":49.5211898,"lon":-96.4939983},{"id":"way_155907233","name":"Galiano Golf and Country Club","lat":48.8940595,"lon":-123.3466872},{"id":"way_156122026","name":"Stewart Creek Golf & Country Club","lat":51.0462218,"lon":-115.3127805},{"id":"way_156123203","name":"Silvertip","lat":51.1009239,"lon":-115.3384704},{"id":"way_156264803","name":"Mississippi Golf Club","lat":45.1718541,"lon":-76.1299531},{"id":"way_156412792","name":"Nanaimo Golf Club","lat":49.2009228,"lon":-123.9865575},{"id":"way_156413847","name":"Unnamed Course","lat":49.1539397,"lon":-123.8312518},{"id":"way_156547042","name":"Selkirk Golf Course and Country Club","lat":50.1321747,"lon":-96.8676537},{"id":"way_156739408","name":"Petawawa Twin Rivers Golf Culb","lat":45.9124649,"lon":-77.2680029},{"id":"way_157136719","name":"Belvedere Golf & Country Club","lat":46.2572888,"lon":-63.1070086},{"id":"way_158080367","name":"The Willows","lat":47.3680313,"lon":-53.1198428},{"id":"way_158884379","name":"Unnamed Course","lat":60.6257961,"lon":-134.9816992},{"id":"way_159132620","name":"Mountain View Golf Club","lat":60.7799789,"lon":-135.0856608},{"id":"way_159275870","name":"The Meadows at East St. Paul Golf Course","lat":49.9511206,"lon":-97.013782},{"id":"way_159444702","name":"Kelowna Springs Golf Club","lat":49.9254552,"lon":-119.3756799},{"id":"way_159452769","name":"Southside","lat":49.7808854,"lon":-96.9967331},{"id":"way_159602154","name":"Unnamed Course","lat":54.0452486,"lon":-124.0034333},{"id":"way_159617291","name":"Unnamed Course","lat":54.0138046,"lon":-125.0589078},{"id":"way_159628644","name":"Shannon Lake Golf Course","lat":49.867008,"lon":-119.6102935},{"id":"way_159628664","name":"Shannon Lake Golf Course","lat":49.8599617,"lon":-119.6096102},{"id":"way_159756420","name":"Kimberley Golf Course","lat":49.6359839,"lon":-115.9717158},{"id":"way_159766848","name":"Cranbrook Golf Club","lat":49.5122862,"lon":-115.7435154},{"id":"way_159844237","name":"Grandview Golf and Country Club","lat":44.7136961,"lon":-63.453098},{"id":"way_160065631","name":"Two Eagles Golf Course","lat":49.8339581,"lon":-119.6065755},{"id":"way_160434445","name":"Unnamed Course","lat":46.9075811,"lon":-65.2142222},{"id":"way_160521174","name":"Lone Wolf Golf Course","lat":56.1631872,"lon":-120.6752849},{"id":"way_161004894","name":"Unnamed Course","lat":47.196702,"lon":-65.1384973},{"id":"way_161230700","name":"Unnamed Course","lat":50.8397391,"lon":-113.9894604},{"id":"way_161230703","name":"Unnamed Course","lat":50.8467729,"lon":-114.0005774},{"id":"way_161230704","name":"Unnamed Course","lat":50.8426118,"lon":-113.9924673},{"id":"way_161230706","name":"Unnamed Course","lat":50.8466924,"lon":-113.985362},{"id":"way_161230707","name":"Unnamed Course","lat":50.8475253,"lon":-113.9945451},{"id":"way_161230708","name":"Unnamed Course","lat":50.8348631,"lon":-113.98202},{"id":"way_161230709","name":"Unnamed Course","lat":50.8390852,"lon":-113.9839249},{"id":"way_161230719","name":"Unnamed Course","lat":50.838444,"lon":-113.978744},{"id":"way_161498032","name":"Miramichi Golf and Country Club","lat":47.0080301,"lon":-65.513639},{"id":"way_161503018","name":"Unnamed Course","lat":47.0481702,"lon":-65.835613},{"id":"way_161568006","name":"Sunningdale Golf & Country Club","lat":43.0360187,"lon":-81.3087295},{"id":"way_161594270","name":"Sturgeon Valley Golf Club","lat":53.6780242,"lon":-113.5732564},{"id":"way_161945321","name":"Kachur's Golf Club","lat":53.2177151,"lon":-105.8951359},{"id":"way_161945361","name":"Unnamed Course","lat":53.1517795,"lon":-105.8403703},{"id":"way_162037164","name":"Unnamed Course","lat":53.1596092,"lon":-105.707892},{"id":"way_162047258","name":"Cooke Municipal Golf Course","lat":53.1960339,"lon":-105.7237626},{"id":"way_162146926","name":"Unnamed Course","lat":46.181793,"lon":-60.2970969},{"id":"way_162236072","name":"Unnamed Course","lat":43.3062166,"lon":-80.4682873},{"id":"way_162765762","name":"Sirocco Golf Club","lat":50.8486706,"lon":-114.0825974},{"id":"way_162765816","name":"Unnamed Course","lat":50.8361178,"lon":-114.0197631},{"id":"way_162904585","name":"Unnamed Course","lat":43.075038,"lon":-79.2211296},{"id":"way_162904588","name":"Unnamed Course","lat":43.0753987,"lon":-79.2189379},{"id":"way_163236676","name":"Prescott Golf Course","lat":44.7193278,"lon":-75.5062161},{"id":"way_163836030","name":"Shaganappi Point Golf Course - Valley 9","lat":51.0446503,"lon":-114.1283958},{"id":"way_163851339","name":"Unnamed Course","lat":43.674247,"lon":-80.2835157},{"id":"way_163851343","name":"Unnamed Course","lat":43.6630987,"lon":-80.2881581},{"id":"way_164258405","name":"Club de golf La seigneurie","lat":45.589548,"lon":-73.1784346},{"id":"way_164390335","name":"Unnamed Course","lat":46.4933969,"lon":-63.481598},{"id":"way_164390378","name":"Unnamed Course","lat":46.4731614,"lon":-63.3873361},{"id":"way_164411399","name":"Rustico Resort Golf & Tennis Club","lat":46.4152731,"lon":-63.2517793},{"id":"way_164511033","name":"Club de golf l’Albatros","lat":46.7879365,"lon":-71.3654791},{"id":"way_164635812","name":"D'Arcy Ranch Golf Club","lat":50.7374744,"lon":-113.9937197},{"id":"way_164663821","name":"Unnamed Course","lat":53.0162681,"lon":-122.5570904},{"id":"way_164774230","name":"Spring Creek Golf Club","lat":43.9788911,"lon":-79.0931561},{"id":"way_164835313","name":"Revelstoke Golf Club","lat":51.011987,"lon":-118.2278186},{"id":"way_164957817","name":"Cottonwood Golf & Country Club","lat":50.8522324,"lon":-113.8594432},{"id":"way_165358010","name":"Club de golf Saint-Jean","lat":45.2810004,"lon":-73.262727},{"id":"way_165476701","name":"Watson's Glen Golf Course","lat":43.9655746,"lon":-79.0335764},{"id":"way_165745687","name":"Unnamed Course","lat":49.3078353,"lon":-123.025739},{"id":"way_165760378","name":"Unnamed Course","lat":49.1228309,"lon":-103.0062329},{"id":"way_166784102","name":"Unnamed Course","lat":49.8388196,"lon":-100.9680344},{"id":"way_166784338","name":"Unnamed Course","lat":49.7644346,"lon":-100.6264291},{"id":"way_166784629","name":"Unnamed Course","lat":49.7639724,"lon":-100.623559},{"id":"way_166962180","name":"Club de Golf Tecumseh","lat":45.4789953,"lon":-75.6696098},{"id":"way_167422262","name":"Golf du Domaine Laforest","lat":47.986535,"lon":-70.0846636},{"id":"way_167544566","name":"Unnamed Course","lat":49.9697685,"lon":-101.234833},{"id":"way_167939566","name":"Unnamed Course","lat":51.4801154,"lon":-112.8029645},{"id":"way_167986128","name":"Mickey Creek Golf Club","lat":45.7934193,"lon":-76.6076485},{"id":"way_168159391","name":"River Valley Golf Course","lat":43.216596,"lon":-81.2129579},{"id":"way_168320795","name":"Norway Bay Golf Club (Closed)","lat":45.5115568,"lon":-76.3980168},{"id":"way_169054607","name":"Unnamed Course","lat":44.3846717,"lon":-66.2204201},{"id":"way_169458557","name":"Unnamed Course","lat":44.0503017,"lon":-79.279739},{"id":"way_169458558","name":"Unnamed Course","lat":44.0471103,"lon":-79.2782322},{"id":"way_169458559","name":"Ballantrae Golf Club","lat":44.0492639,"lon":-79.291874},{"id":"way_169458560","name":"Unnamed Course","lat":44.052474,"lon":-79.2807959},{"id":"way_169458561","name":"Ballantrae Golf Club","lat":44.044092,"lon":-79.2894682},{"id":"way_169458562","name":"Ballantrae Golf Club","lat":44.048137,"lon":-79.2879156},{"id":"way_169613074","name":"Mill River Golf Course","lat":46.7424994,"lon":-64.1585945},{"id":"way_169727222","name":"Unnamed Course","lat":44.0318768,"lon":-79.4544478},{"id":"way_169848656","name":"Pine Lodge Golf Course","lat":45.5258645,"lon":-76.4532518},{"id":"way_169994976","name":"Wyndance Golf Club","lat":44.0477995,"lon":-79.1625913},{"id":"way_170059268","name":"Unnamed Course","lat":54.0447645,"lon":-111.3140002},{"id":"way_170152303","name":"Unnamed Course","lat":49.1843257,"lon":-113.3195453},{"id":"way_170854218","name":"Prince Rupert Centennial Golf","lat":54.3047318,"lon":-130.3172007},{"id":"way_171556826","name":"Club de Golf Hillsdale (FERMÉ)","lat":45.6490848,"lon":-73.9003627},{"id":"way_171556841","name":"Club de Golf Le Diamant","lat":45.6561673,"lon":-73.9963052},{"id":"way_171556844","name":"Club de Golf Glendale","lat":45.6447101,"lon":-73.9453241},{"id":"way_171557413","name":"Club de Golf Saint-Janvier","lat":45.7258201,"lon":-73.856819},{"id":"way_171964452","name":"Unnamed Course","lat":50.6903362,"lon":-120.2837511},{"id":"way_172420151","name":"Harbour View Golf Course","lat":49.9355003,"lon":-97.0164365},{"id":"way_172548516","name":"Rockway Municipal Golf Course","lat":43.4347654,"lon":-80.4697652},{"id":"way_172816804","name":"The Badlands Golf Company","lat":43.4429818,"lon":-80.5695304},{"id":"way_173103669","name":"Roseland Golf and Curling Club","lat":42.2507904,"lon":-83.0061471},{"id":"way_173545174","name":"Unnamed Course","lat":44.1890165,"lon":-76.79044},{"id":"way_173545193","name":"Unnamed Course","lat":44.1830402,"lon":-76.7847074},{"id":"way_173734614","name":"19 Greens Putting Course","lat":49.8791607,"lon":-119.5254992},{"id":"way_174446131","name":"Lafleur Golf Course","lat":45.3758285,"lon":-73.6655438},{"id":"way_174451374","name":"Mohawk Hills Golf Course","lat":45.3734399,"lon":-73.6604785},{"id":"way_174521273","name":"Golf Des Moulins","lat":45.698726,"lon":-73.6823809},{"id":"way_174712250","name":"King Valley Golf Club","lat":43.9975577,"lon":-79.5113675},{"id":"way_175007527","name":"Unnamed Course","lat":44.2362209,"lon":-78.3850834},{"id":"way_175300119","name":"Woodington Lake Golf Club","lat":44.0224534,"lon":-79.8344173},{"id":"way_175304061","name":"Unnamed Course","lat":45.750251,"lon":-73.727065},{"id":"way_175305148","name":"Unnamed Course","lat":45.792172,"lon":-73.9471823},{"id":"way_175306797","name":"Club De Golf Ste-Sophie","lat":45.7883165,"lon":-73.9414455},{"id":"way_175313028","name":"Club De Golf Val Des Lacs","lat":45.8129545,"lon":-73.9488558},{"id":"way_175343570","name":"Unnamed Course","lat":41.9944589,"lon":-82.879116},{"id":"way_175365503","name":"Essex Golf and Country Club","lat":42.2195761,"lon":-83.0798898},{"id":"way_175463501","name":"Club de Golf de Crabtree","lat":45.9737107,"lon":-73.5178605},{"id":"way_175507820","name":"Unnamed Course","lat":44.1639086,"lon":-79.8054901},{"id":"way_175508021","name":"Unnamed Course","lat":44.1601698,"lon":-79.8059889},{"id":"way_175508438","name":"Nottawasaga Inn Resort","lat":44.1615326,"lon":-79.7967057},{"id":"way_175510519","name":"Unnamed Course","lat":44.1597151,"lon":-79.8127433},{"id":"way_175518794","name":"Ponderosa Golf and Country Club","lat":44.0897959,"lon":-79.8121671},{"id":"way_175632612","name":"Unnamed Course","lat":44.2292949,"lon":-79.542764},{"id":"way_175640536","name":"Golf Oasis","lat":45.6805621,"lon":-74.3776766},{"id":"way_175675199","name":"Willow Ridge Golf & Country Club","lat":42.3272471,"lon":-81.9634581},{"id":"way_175678702","name":"Norfolk Golf and Country Club","lat":42.8371394,"lon":-80.2967389},{"id":"way_175822186","name":"Unnamed Course","lat":43.2117269,"lon":-80.9839598},{"id":"way_175943848","name":"Ridgetown Golf & Country Club","lat":42.4178606,"lon":-81.8852414},{"id":"way_175953264","name":"Unnamed Course","lat":44.4219404,"lon":-79.7736264},{"id":"way_175953971","name":"Barrie Golf & Country Club","lat":44.425718,"lon":-79.6932139},{"id":"way_175957217","name":"Unnamed Course","lat":44.4666804,"lon":-79.6633978},{"id":"way_176081661","name":"Unnamed Course","lat":44.4303967,"lon":-79.610192},{"id":"way_176257964","name":"Redstone Resort","lat":49.0676393,"lon":-117.7852644},{"id":"way_176410340","name":"Unnamed Course","lat":42.6159306,"lon":-80.465779},{"id":"way_176707371","name":"Club de Golf Piedmont","lat":45.9171301,"lon":-74.1368231},{"id":"way_176776038","name":"Club de golf le Chantecler","lat":45.9598221,"lon":-74.1626482},{"id":"way_176779534","name":"Club de Golf Alpine","lat":45.9867006,"lon":-74.125148},{"id":"way_176779574","name":"Club de Golf Val-Morin","lat":46.0000975,"lon":-74.1723312},{"id":"way_176783220","name":"Club de Golf Les Ruisseaux","lat":46.1077669,"lon":-74.5177472},{"id":"way_176799160","name":"Club de Golf St-Donat","lat":46.29974,"lon":-74.2102008},{"id":"way_176815930","name":"Brooks Golf Club","lat":50.5572122,"lon":-111.8748986},{"id":"way_176872183","name":"Unnamed Course","lat":42.7004913,"lon":-80.3238695},{"id":"way_176872662","name":"Pine Valley Golf Course","lat":42.7366221,"lon":-80.3444319},{"id":"way_177247614","name":"Bellmere Winds Golf Course","lat":44.2615348,"lon":-78.0947109},{"id":"way_177654840","name":"Le Cite Golf Club","lat":45.6021421,"lon":-74.6232429},{"id":"way_177870170","name":"Northern Dunes Golf Club","lat":44.6415967,"lon":-81.1283348},{"id":"way_177933663","name":"Unnamed Course","lat":52.9066936,"lon":-66.994834},{"id":"way_178082438","name":"Crosswinds Golf & Country Club","lat":43.4464606,"lon":-79.9127861},{"id":"way_178088851","name":"Ariss Valley Golf and Country Club","lat":43.5670887,"lon":-80.3608425},{"id":"way_178104866","name":"Guelph Lakes Golf and Country Club","lat":43.5980388,"lon":-80.2259025},{"id":"way_178402187","name":"Thundering Waters Golf Club","lat":43.0636315,"lon":-79.0940356},{"id":"way_178402188","name":"Thundering Waters Golf Club","lat":43.0609785,"lon":-79.0950999},{"id":"way_178553592","name":"Niagara Falls Golf Club","lat":43.0827978,"lon":-79.1552838},